     3.02           OBSERVATION DATA    G                   RINEX VERSION / TYPE
G = GPS  R = GLONASS  E = GALILEO  S = GEO  M = MIXED       COMMENT             
GNSS-SDR            UNKNOWN USER        20220621 152410 UTC PGM / RUN BY / DATE 
GPS OBSERVATION DATA FILE GENERATED BY GNSS-SDR             COMMENT             
GNSS-SDR VERSION 0.0.17.git-next-d82acd9c4                  COMMENT             
See https://gnss-sdr.org                                    COMMENT             
DEFAULT MARKER NAME                                         MARKER NAME         
UNKNOWN USER        CTTC                                    OBSERVER / AGENCY   
GNSS-SDR            Software Receiver   0.0.17.gi           REC # / TYPE / VERS 
Antenna number      Antenna type                            ANT # / TYPE        
        0.0000        0.0000        0.0000                  APPROX POSITION XYZ 
        0.0000        0.0000        0.0000                  ANTENNA: DELTA H/E/N
G    4 C1C L1C D1C S1C                                      SYS / # / OBS TYPES 
DBHZ                                                        SIGNAL STRENGTH UNIT
  2022    06    08    00    00   42.1000000     GPS         TIME OF FIRST OBS   
    18    18   137     7                                    LEAP SECONDS        
                                                            END OF HEADER       
> 2022 06 08 00 00 43.0000000  0  7                                             
G01  23415835.318 8 123051050.411 8      4001.924 8        50.596               
G09  24840675.168 7 130538624.477 7     -2599.239 7        47.317               
G04  25465043.927 8 133819703.794 8     -2839.893 8        48.016               
G21  20934694.703 8 110012542.129 8      2083.292 8        53.293               
G16  22758666.734 8 119597617.445 8     -2347.335 8        53.763               
G10  25257014.888 7 132726508.912 7      1431.161 7        45.636               
G08  20290459.414 9 106627112.878 9      -151.097 9        56.965               
> 2022 06 08 00 00 44.0000000  0  7                                             
G01  23415074.420 8 123047049.111 8      4000.685 8        52.286               
G09  24841167.218 7 130541222.436 7     -2598.634 7        45.859               
G04  25465582.500 8 133822543.429 8     -2839.215 8        48.654               
G21  20934294.705 9 110010458.783 9      2083.099 9        56.189               
G16  22759113.969 8 119599966.061 8     -2347.907 8        52.904               
G10  25256740.107 7 132725077.729 7      1434.761 7        45.641               
G08  20290494.089 9 106627263.961 9      -151.836 9        56.116               
> 2022 06 08 00 00 45.0000000  0  7                                             
G01  23414311.904 8 123043047.941 8      3999.044 8        48.437               
G09  24841660.117 8 130543820.459 8     -2599.522 8        48.047               
G04  25466122.895 7 133825382.884 7     -2841.265 7        47.879               
G21  20933901.774 9 110008376.002 9      2081.589 9        57.435               
G16  22759561.552 8 119602314.867 8     -2347.452 8        53.563               
G10  25256467.640 7 132723646.923 7      1430.419 7        46.229               
G08  20290526.789 9 106627415.440 9      -151.323 9        57.342               
> 2022 06 08 00 00 46.0000000  0  7                                             
G01  23413552.265 7 123039046.914 7      4004.831 7        47.664               
G09  24842157.296 8 130546418.543 8     -2600.322 8        48.979               
G04  25466663.692 7 133828222.161 7     -2837.418 7        46.050               
G21  20933505.832 9 110006293.782 9      2081.695 9        54.969               
G16  22760008.081 8 119604663.871 8     -2349.344 8        53.064               
G10  25256197.157 7 132722216.491 7      1426.488 7        46.736               
G08  20290553.673 9 106627567.316 9      -152.419 9        58.900               
> 2022 06 08 00 00 47.0000000  0  7                                             
G01  23412790.875 8 123035046.024 8      4001.023 8        48.729               
G09  24842651.223 8 130549016.690 8     -2599.076 8        48.111               
G04  25467203.961 7 133831061.250 7     -2839.474 7        47.340               
G21  20933105.664 8 110004212.126 8      2081.711 8        53.980               
G16  22760454.128 8 119607013.071 8     -2348.714 8        50.411               
G10  25255926.522 8 132720786.429 8      1430.988 8        48.049               
G08  20290579.351 9 106627719.590 9      -153.076 9        55.365               
> 2022 06 08 00 00 48.0000000  0  7                                             
G01  23412029.717 8 123031045.280 8      3999.920 8        51.433               
G09  24843143.443 8 130551614.899 8     -2599.516 8        48.314               
G04  25467743.007 7 133833900.162 7     -2841.951 7        46.028               
G21  20932714.342 9 110002131.034 9      2080.303 9        56.450               
G16  22760901.684 8 119609362.463 8     -2349.793 8        52.559               
G10  25255653.304 7 132719356.742 7      1429.577 7        47.647               
G08  20290604.037 9 106627872.259 9      -153.365 9        57.302               
> 2022 06 08 00 00 49.0000000  0  7                                             
G01  23411268.577 8 123027044.671 8      4001.954 8        51.653               
G09  24843639.299 7 130554213.173 7     -2598.562 7        46.421               
G04  25468286.038 7 133836738.892 7     -2839.096 7        46.801               
G21  20932315.961 9 110000050.504 9      2080.212 9        55.864               
G16  22761349.598 8 119611712.050 8     -2348.968 8        51.459               
G10  25255380.239 7 132717927.428 7      1427.640 7        46.764               
G08  20290638.229 9 106628025.325 9      -153.441 9        58.361               
> 2022 06 08 00 00 50.0000000  0  7                                             
G01  23410508.071 8 123023044.200 8      4001.290 8        50.004               
G09  24844135.817 7 130556811.512 7     -2603.283 7        47.640               
G04  25468824.798 7 133839577.433 7     -2840.418 7        46.695               
G21  20931918.357 9 109997970.542 9      2080.337 9        55.152               
G16  22761794.841 8 119614061.832 8     -2350.053 8        53.100               
G10  25255106.807 7 132716498.488 7      1428.875 7        44.653               
G08  20290670.447 9 106628178.787 9      -153.284 9        58.581               
> 2022 06 08 00 00 51.0000000  0  7                                             
G01  23409747.190 8 123019043.870 8      4000.931 8        51.156               
G09  24844625.803 7 130559409.906 7     -2599.186 7        45.586               
G04  25469364.737 7 133842415.802 7     -2840.560 7        46.354               
G21  20931526.873 9 109995891.143 9      2078.301 9        55.220               
G16  22762243.174 8 119616411.808 8     -2347.923 8        52.483               
G10  25254835.922 7 132715069.921 7      1430.244 7        46.318               
G08  20290700.940 9 106628332.647 9      -154.678 9        57.794               
> 2022 06 08 00 00 52.0000000  0  7                                             
G01  23408984.540 8 123015043.683 8      3999.510 8        51.403               
G09  24845120.918 8 130562008.367 8     -2600.036 8        48.138               
G04  25469904.802 7 133845253.973 7     -2837.428 7        47.886               
G21  20931127.903 9 109993812.307 9      2078.044 9        57.371               
G16  22762690.391 8 119618761.981 8     -2349.371 8        51.405               
G10  25254566.341 8 132713641.726 8      1428.977 8        49.786               
G08  20290725.805 9 106628486.903 9      -154.181 9        57.003               
> 2022 06 08 00 00 53.0000000  0  7                                             
G01  23408221.631 8 123011043.633 8      3998.131 8        50.178               
G09  24845618.097 8 130564606.887 8     -2595.581 8        48.311               
G04  25470445.179 7 133848091.971 7     -2841.028 7        46.896               
G21  20930733.685 9 109991734.031 9      2078.602 9        56.913               
G16  22763137.385 9 119621112.348 9     -2350.327 9        54.443               
G10  25254295.080 7 132712213.906 7      1425.931 7        47.838               
G08  20290751.045 9 106628641.553 9      -155.180 9        57.225               
> 2022 06 08 00 00 54.0000000  0  7                                             
G01  23407461.572 8 123007043.718 8      3997.815 8        49.140               
G09  24846111.496 8 130567205.469 8     -2599.074 8        48.516               
G04  25470984.654 7 133850929.785 7     -2835.593 7        47.539               
G21  20930340.424 9 109989656.323 9      2077.861 9        55.987               
G16  22763584.736 9 119623462.909 9     -2349.801 9        54.617               
G10  25254021.863 7 132710786.466 7      1424.741 7        45.950               
G08  20290785.014 9 106628796.602 9      -155.237 9        57.565               
> 2022 06 08 00 00 55.0000000  0  7                                             
G01  23406701.665 8 123003043.944 8      4000.394 8        50.817               
G09  24846604.270 7 130569804.116 7     -2598.294 7        46.784               
G04  25471524.271 7 133853767.413 7     -2839.547 7        47.286               
G21  20929940.899 8 109987579.179 8      2077.629 8        53.074               
G16  22764031.721 8 119625813.665 8     -2348.879 8        51.718               
G10  25253749.047 7 132709359.390 7      1428.800 7        46.115               
G08  20290816.839 9 106628952.047 9      -155.689 9        55.663               
> 2022 06 08 00 00 56.0000000  0  7                                             
G01  23405939.016 8 122999044.315 8      3999.775 8        49.037               
G09  24847102.057 7 130572402.821 7     -2598.080 7        46.015               
G04  25472065.265 7 133856604.862 7     -2837.686 7        45.577               
G21  20929548.067 8 109985502.602 8      2076.114 8        52.966               
G16  22764479.134 8 119628164.615 8     -2349.826 8        52.026               
G10  25253477.715 7 132707932.695 7      1424.537 7        47.620               
G08  20290849.593 9 106629107.888 9      -155.395 9        57.673               
> 2022 06 08 00 00 57.0000000  0  7                                             
G01  23405178.224 8 122995044.817 8      3999.180 8        49.833               
G09  24847595.885 8 130575001.589 8     -2601.315 8        48.303               
G04  25472605.195 7 133859442.126 7     -2841.019 7        44.747               
G21  20929154.475 8 109983426.583 8      2077.208 8        52.454               
G16  22764926.619 8 119630515.762 8     -2350.141 8        53.237               
G10  25253207.821 7 132706506.375 7      1424.713 7        47.004               
G08  20290874.055 9 106629264.124 9      -156.363 9        56.783               
> 2022 06 08 00 00 58.0000000  0  7                                             
G01  23404417.370 8 122991045.467 8      3999.226 8        50.325               
G09  24848087.623 8 130577600.417 8     -2597.994 8        49.979               
G04  25473145.224 7 133862279.207 7     -2836.631 7        46.966               
G21  20928755.209 9 109981351.132 9      2075.114 9        54.941               
G16  22765374.560 9 119632867.103 9     -2350.440 9        54.626               
G10  25252937.490 7 132705080.424 7      1425.878 7        46.321               
G08  20290900.198 9 106629420.758 9      -156.683 9        56.652               
> 2022 06 08 00 00 59.0000000  0  7                                             
G01  23403656.552 8 122987046.259 8      3999.894 8        50.690               
G09  24848584.364 8 130580199.307 8     -2597.641 8        48.272               
G04  25473684.457 7 133865116.105 7     -2838.921 7        47.379               
G21  20928364.673 9 109979276.245 9      2073.883 9        54.347               
G16  22765822.492 8 119635218.639 8     -2352.501 8        52.411               
G10  25252665.934 7 132703654.850 7      1427.586 7        47.258               
G08  20290933.952 9 106629577.787 9      -157.195 9        57.222               
> 2022 06 08 00 01 00.0000000  0  7                                             
G01  23402895.858 8 122983047.182 8      4000.767 8        50.610               
G09  24849080.577 7 130582798.261 7     -2598.416 7        46.709               
G04  25474224.424 7 133867952.819 7     -2837.073 7        47.709               
G21  20927968.534 8 109977201.921 8      2074.475 8        53.957               
G16  22766269.950 8 119637570.366 8     -2349.743 8        51.112               
G10  25252392.297 7 132702229.650 7      1427.187 7        47.962               
G08  20290965.759 9 106629735.213 9      -156.759 9        56.142               
> 2022 06 08 00 01 01.0000000  0  7                                             
G01  23402136.532 8 122979048.253 8      3998.148 8        50.185               
G09  24849571.064 8 130585397.269 8     -2596.886 8        48.364               
G04  25474765.408 7 133870789.355 7     -2836.045 7        47.146               
G21  20927571.762 9 109975128.165 9      2073.672 9        55.287               
G16  22766717.238 8 119639922.291 8     -2351.074 8        51.150               
G10  25252121.367 8 132700804.827 8      1424.787 8        49.339               
G08  20290999.023 9 106629893.036 9      -158.615 9        58.188               
> 2022 06 08 00 01 02.0000000  0  7                                             
G01  23401374.079 8 122975049.463 8      3999.435 8        50.269               
G09  24850067.010 7 130587996.341 7     -2598.628 7        47.318               
G04  25475301.104 7 133873625.695 7     -2831.235 7        46.054               
G21  20927181.779 9 109973054.969 9      2073.803 9        56.050               
G16  22767164.965 8 119642274.410 8     -2352.770 8        52.147               
G10  25251851.009 8 132699380.381 8      1424.213 8        49.698               
G08  20291023.878 9 106630051.252 9      -158.197 9        59.144               
> 2022 06 08 00 01 03.0000000  0  7                                             
G01  23400613.484 8 122971050.812 8      3998.041 8        51.040               
G09  24850564.689 7 130590595.479 7     -2597.157 7        46.429               
G04  25475843.563 7 133876461.870 7     -2834.585 7        47.257               
G21  20926784.274 9 109970982.343 9      2071.527 9        54.050               
G16  22767612.307 8 119644626.723 8     -2351.848 8        52.719               
G10  25251582.196 8 132697956.301 8      1425.138 8        48.842               
G08  20291050.199 9 106630209.867 9      -159.043 9        57.660               
> 2022 06 08 00 01 04.0000000  0  7                                             
G01  23399852.442 8 122967052.298 8      3998.939 8        50.685               
G09  24851057.177 7 130593194.673 7     -2597.703 7        45.310               
G04  25476384.717 8 133879297.841 8     -2836.741 8        49.140               
G21  20926389.860 9 109968910.276 9      2071.638 9        54.801               
G16  22768059.979 8 119646979.231 8     -2352.006 8        53.483               
G10  25251310.551 7 132696532.600 7      1424.282 7        46.763               
G08  20291084.383 9 106630368.875 9      -159.182 9        55.970               
> 2022 06 08 00 01 05.0000000  0  7                                             
G01  23399092.097 8 122963053.937 8      3999.120 8        50.274               
G09  24851549.514 7 130595793.931 7     -2595.839 7        46.342               
G04  25476922.485 7 133882133.639 7     -2836.046 7        47.361               
G21  20925998.180 9 109966838.774 9      2070.648 9        56.006               
G16  22768508.224 9 119649331.936 9     -2352.703 9        54.406               
G10  25251038.290 7 132695109.272 7      1423.967 7        46.739               
G08  20291116.904 9 106630528.281 9      -159.217 9        59.016               
> 2022 06 08 00 01 06.0000000  0  7                                             
G01  23398330.118 8 122959055.714 8      4000.347 8        49.770               
G09  24852047.934 7 130598393.251 7     -2600.924 7        47.194               
G04  25477463.961 7 133884969.254 7     -2836.821 7        47.994               
G21  20925599.951 9 109964767.841 9      2070.832 9        54.777               
G16  22768955.119 8 119651684.833 8     -2353.429 8        53.981               
G10  25250765.841 8 132693686.321 8      1420.581 8        48.267               
G08  20291149.891 9 106630688.082 9      -159.706 9        57.376               
> 2022 06 08 00 01 07.0000000  0  7                                             
G01  23397568.263 8 122955057.624 8      3996.792 8        51.644               
G09  24852542.424 7 130600992.622 7     -2599.283 7        47.080               
G04  25477997.039 8 133887804.686 8     -2835.155 8        48.209               
G21  20925209.513 9 109962697.473 9      2069.640 9        55.626               
G16  22769404.239 8 119654037.925 8     -2353.524 8        53.067               
G10  25250496.349 8 132692263.750 8      1420.722 8        48.408               
G08  20291175.300 9 106630848.279 9      -160.162 9        57.067               
> 2022 06 08 00 01 08.0000000  0  7                                             
G01  23396808.490 8 122951059.681 8      3998.751 8        50.219               
G09  24853033.884 8 130603592.061 8     -2599.340 8        49.217               
G04  25478540.472 8 133890639.926 8     -2837.392 8        48.276               
G21  20924815.921 9 109960627.664 9      2070.385 9        55.065               
G16  22769851.876 8 119656391.213 8     -2353.830 8        52.665               
G10  25250227.894 8 132690841.547 8      1422.443 8        48.510               
G08  20291201.273 9 106631008.873 9      -160.639 9        57.266               
> 2022 06 08 00 01 09.0000000  0  7                                             
G01  23396047.261 8 122947061.872 8      3998.119 8        51.352               
G09  24853531.215 7 130606191.558 7     -2598.358 7        47.084               
G04  25479080.527 8 133893474.994 8     -2836.315 8        48.170               
G21  20924418.388 9 109958558.427 9      2069.591 9        54.745               
G16  22770300.219 8 119658744.694 8     -2352.706 8        52.630               
G10  25249957.214 7 132689419.722 7      1422.388 7        47.258               
G08  20291236.287 9 106631169.861 9      -162.046 9        56.884               
> 2022 06 08 00 01 10.0000000  0  7                                             
G01  23395285.647 8 122943064.215 8      3996.808 8        51.356               
G09  24854027.884 7 130608791.110 7     -2597.517 7        46.720               
G04  25479621.825 8 133896309.867 8     -2835.022 8        49.112               
G21  20924029.496 9 109956489.752 9      2068.118 9        54.609               
G16  22770747.391 8 119661098.372 8     -2353.154 8        51.486               
G10  25249684.970 7 132687998.274 7      1421.085 7        47.416               
G08  20291270.310 9 106631331.245 9      -161.402 9        56.863               
> 2022 06 08 00 01 11.0000000  0  7                                             
G01  23394526.321 8 122939066.695 8      3997.868 8        49.927               
G09  24854517.764 7 130611390.733 7     -2597.349 7        46.036               
G04  25480164.980 7 133899144.556 7     -2835.665 7        47.576               
G21  20923632.250 9 109954421.641 9      2067.835 9        54.348               
G16  22771195.475 8 119663452.241 8     -2352.692 8        52.024               
G10  25249413.477 8 132686577.194 8      1421.633 8        48.207               
G08  20291301.634 9 106631493.025 9      -161.460 9        57.049               
> 2022 06 08 00 01 12.0000000  0  7                                             
G01  23393766.030 8 122935069.323 8      3996.150 8        51.086               
G09  24855013.638 7 130613990.407 7     -2599.014 7        47.199               
G04  25480699.755 8 133901979.063 8     -2835.141 8        48.600               
G21  20923237.684 9 109952354.096 9      2067.779 9        55.690               
G16  22771643.755 8 119665806.307 8     -2354.430 8        51.414               
G10  25249144.986 7 132685156.500 7      1420.793 7        47.975               
G08  20291328.331 9 106631655.201 9      -162.569 9        56.979               
> 2022 06 08 00 01 13.0000000  0  7                                             
G01  23393004.890 8 122931072.078 8      3996.543 8        50.415               
G09  24855510.602 7 130616590.143 7     -2599.292 7        47.810               
G04  25481240.892 8 133904813.386 8     -2834.656 8        48.327               
G21  20922848.639 8 109950287.117 8      2066.229 8        52.957               
G16  22772092.205 8 119668160.567 8     -2355.583 8        52.502               
G10  25248876.853 7 132683736.175 7      1419.855 7        47.991               
G08  20291354.616 9 106631817.771 9      -162.556 9        55.356               
> 2022 06 08 00 01 14.0000000  0  7                                             
G01  23392244.768 8 122927074.991 8      3998.762 8        50.055               
G09  24856005.020 7 130619189.941 7     -2602.937 7        45.075               
G04  25481777.231 8 133907647.528 8     -2833.579 8        48.274               
G21  20922450.696 8 109948220.704 8      2065.801 8        53.297               
G16  22772539.850 8 119670515.022 8     -2354.779 8        52.240               
G10  25248604.886 7 132682316.228 7      1420.193 7        46.554               
G08  20291391.623 9 106631980.738 9      -163.130 9        56.327               
> 2022 06 08 00 01 15.0000000  0  7                                             
G01  23391484.155 8 122923078.031 8      3997.132 8        51.231               
G09  24856497.839 7 130621789.794 7     -2595.090 7        46.036               
G04  25482317.367 8 133910481.481 8     -2836.400 8        49.192               
G21  20922061.321 8 109946154.855 8      2066.066 8        53.325               
G16  22772987.818 8 119672869.669 8     -2354.080 8        51.920               
G10  25248333.465 7 132680896.655 7      1417.280 7        47.773               
G08  20291426.852 9 106632144.100 9      -163.214 9        56.351               
> 2022 06 08 00 01 16.0000000  0  7                                             
G01  23390723.971 8 122919081.223 8      3994.801 8        49.092               
G09  24856994.955 7 130624389.713 7     -2596.739 7        44.487               
G04  25482855.582 8 133913315.245 8     -2832.070 8        48.259               
G21  20921668.033 9 109944089.569 9      2064.719 9        54.384               
G16  22773436.223 8 119675224.516 8     -2355.846 8        52.808               
G10  25248062.097 7 132679477.456 7      1419.027 7        46.749               
G08  20291454.888 9 106632307.858 9      -164.575 9        55.877               
> 2022 06 08 00 01 17.0000000  0  7                                             
G01  23389962.956 8 122915084.556 8      3994.832 8        50.409               
G09  24857488.230 7 130626989.690 7     -2603.248 7        45.893               
G04  25483395.619 8 133916148.828 8     -2833.423 8        50.252               
G21  20921271.716 9 109942024.854 9      2064.369 9        54.984               
G16  22773884.343 8 119677579.554 8     -2356.142 8        53.332               
G10  25247793.811 7 132678058.636 7      1420.379 7        46.716               
G08  20291483.925 9 106632472.010 9      -164.074 9        58.834               
> 2022 06 08 00 01 18.0000000  0  7                                             
G01  23389202.335 8 122911088.029 8      3996.944 8        49.622               
G09  24857980.110 7 130629589.717 7     -2597.869 7        45.974               
G04  25483935.219 8 133918982.231 8     -2831.415 8        51.126               
G21  20920884.432 9 109939960.699 9      2064.113 9        55.998               
G16  22774332.721 8 119679934.786 8     -2356.567 8        51.712               
G10  25247526.115 7 132676640.197 7      1415.206 7        47.204               
G08  20291510.773 9 106632636.558 9      -165.519 9        56.168               
> 2022 06 08 00 01 19.0000000  0  7                                             
G01  23388441.150 8 122907091.650 8      3995.416 8        51.654               
G09  24858477.539 7 130632189.809 7     -2602.650 7        47.582               
G04  25484474.274 7 133921815.444 7     -2832.495 7        47.259               
G21  20920487.498 9 109937897.114 9      2063.267 9        56.090               
G16  22774780.706 8 119682290.216 8     -2354.919 8        49.308               
G10  25247255.141 7 132675222.130 7      1412.061 7        45.417               
G08  20291549.379 9 106632801.501 9      -165.231 9        56.920               
> 2022 06 08 00 01 20.0000000  0  7                                             
G01  23387681.600 8 122903095.142 8      4000.531 8        50.413               
G09  24858973.833 8 130634789.413 8     -2596.604 8        48.601               
G04  25485012.462 7 133924648.042 7     -2830.541 7        46.804               
G21  20920095.443 9 109935834.055 9      2062.917 9        55.785               
G16  22775229.281 8 119684646.324 8     -2361.259 8        51.350               
G10  25246984.961 7 132673805.013 7      1411.857 7        46.138               
G08  20291586.270 9 106632966.840 9      -165.949 9        56.944               
> 2022 06 08 00 01 21.0000000  0  7                                             
G01  23386917.351 8 122899082.876 8      4029.824 8        50.106               
G09  24859459.674 7 130637354.984 7     -2530.272 7        47.579               
G04  25485548.041 8 133927453.844 8     -2776.374 8        48.994               
G21  20919704.915 9 109933768.859 9      2067.862 9        56.181               
G16  22775683.190 8 119687031.968 8     -2414.600 8        53.180               
G10  25246720.115 7 132672423.977 7      1347.500 7        46.661               
G08  20291612.725 9 106633132.494 9      -166.084 9        57.678               
> 2022 06 08 00 01 22.0000000  0  7                                             
G01  23386148.394 8 122895044.743 8      4039.560 8        49.837               
G09  24859935.616 7 130639862.472 7     -2499.047 7        47.256               
G04  25486072.015 7 133930213.530 7     -2751.924 7        47.336               
G21  20919308.589 9 109931703.067 9      2059.720 9        55.841               
G16  22776146.489 8 119689470.952 8     -2449.637 8        52.781               
G10  25246471.262 7 132671105.569 7      1308.762 7        47.684               
G08  20291641.959 9 106633303.018 9      -179.018 9        57.106               
> 2022 06 08 00 01 23.0000000  0  7                                             
G01  23385380.660 8 122891007.698 8      4038.858 8        52.089               
G09  24860413.719 7 130642364.036 7     -2502.173 7        47.409               
G04  25486596.015 7 133932965.138 7     -2752.176 7        46.501               
G21  20918921.046 9 109929651.533 9      2047.157 9        56.117               
G16  22776613.318 8 119691928.048 8     -2458.495 8        53.055               
G10  25246223.044 7 132669799.198 7      1303.373 7        46.953               
G08  20291679.064 9 106633494.696 9      -199.663 9        58.660               
> 2022 06 08 00 01 24.0000000  0  7                                             
G01  23384609.942 8 122886956.711 8      4068.965 8        52.569               
G09  24860891.117 8 130644865.905 8     -2499.940 8        48.560               
G04  25487116.111 7 133935703.615 7     -2721.088 7        47.528               
G21  20918528.482 9 109927594.358 9      2068.864 9        56.047               
G16  22777079.690 9 119694380.018 9     -2443.107 9        55.315               
G10  25245971.108 7 132668487.816 7      1315.933 7        46.409               
G08  20291722.128 9 106633703.612 9      -220.578 9        60.123               
> 2022 06 08 00 01 25.0000000  0  7                                             
G01  23383834.257 8 122882868.627 8      4097.243 8        51.148               
G09  24861364.003 7 130647351.666 7     -2479.140 7        47.346               
G04  25487630.068 7 133938404.368 7     -2691.576 7        46.809               
G21  20918132.022 8 109925518.647 8      2077.153 8        53.338               
G16  22777546.492 8 119696831.016 8     -2457.457 8        52.949               
G10  25245726.195 7 132667181.476 7      1302.433 7        46.565               
G08  20291765.076 9 106633938.433 9      -244.578 9        57.504               
> 2022 06 08 00 01 26.0000000  0  7                                             
G01  23383053.640 8 122878773.553 8      4095.597 8        51.624               
G09  24861835.843 8 130649831.370 8     -2481.012 8        48.745               
G04  25488143.776 8 133941094.535 8     -2690.193 8        48.447               
G21  20917741.101 9 109923444.229 9      2072.150 9        56.870               
G16  22778014.803 8 119699288.673 8     -2462.253 8        52.394               
G10  25245477.334 7 132665881.360 7      1302.675 7        47.329               
G08  20291804.978 9 106634184.949 9      -245.518 9        57.486               
> 2022 06 08 00 01 27.0000000  0  7                                             
G01  23382273.666 8 122874681.056 8      4095.278 8        52.220               
G09  24862304.709 8 130652308.104 8     -2470.980 8        48.402               
G04  25488654.580 8 133943785.401 8     -2689.874 8        48.722               
G21  20917342.872 9 109921372.381 9      2075.273 9        55.304               
G16  22778484.606 8 119701750.919 8     -2460.618 8        53.296               
G10  25245229.365 7 132664586.325 7      1296.671 7        47.450               
G08  20291859.854 9 106634428.461 9      -238.524 9        57.471               
> 2022 06 08 00 01 28.0000000  0  7                                             
G01  23381493.567 8 122870582.610 8      4104.104 8        50.280               
G09  24862775.790 8 130654783.366 8     -2476.460 8        48.125               
G04  25489170.369 8 133946475.401 8     -2692.018 8        48.406               
G21  20916946.876 9 109919288.343 9      2093.807 9        56.853               
G16  22778951.560 9 119704203.305 9     -2441.674 9        54.268               
G10  25244983.059 8 132663288.008 8      1306.477 8        48.967               
G08  20291903.177 9 106634658.071 9      -222.792 9        59.085               
> 2022 06 08 00 01 29.0000000  0  7                                             
G01  23380715.085 8 122866469.020 8      4123.178 8        52.123               
G09  24863249.676 8 130657274.366 8     -2491.461 8        48.040               
G04  25489678.475 7 133949167.686 7     -2687.031 7        47.656               
G21  20916545.860 9 109917175.332 9      2125.418 9        54.612               
G16  22779410.374 9 119706615.184 9     -2395.726 9        54.193               
G10  25244730.542 8 132661958.774 8      1340.171 8        48.848               
G08  20291940.809 9 106634872.912 9      -210.899 9        56.325               
> 2022 06 08 00 01 30.0000000  0  7                                             
G01  23379932.046 8 122862345.361 8      4122.643 8        50.346               
G09  24863726.717 7 130659772.066 7     -2499.601 7        45.987               
G04  25490191.066 8 133951857.693 8     -2692.440 8        48.172               
G21  20916137.535 9 109915048.206 9      2125.561 9        55.095               
G16  22779865.721 8 119709008.121 8     -2394.946 8        51.727               
G10  25244473.327 8 132660615.129 8      1343.501 8        48.232               
G08  20291982.212 9 106635085.027 9      -215.800 9        55.524               
> 2022 06 08 00 01 31.0000000  0  7                                             
G01  23379140.663 8 122858223.835 8      4121.681 8        49.762               
G09  24864203.873 7 130662272.441 7     -2502.770 7        47.674               
G04  25490703.719 7 133954548.363 7     -2688.790 7        46.991               
G21  20915735.821 9 109912925.684 9      2121.616 9        55.094               
G16  22780321.363 8 119711402.362 8     -2391.463 8        52.635               
G10  25244219.756 7 132659270.500 7      1346.996 7        47.778               
G08  20292028.189 9 106635303.715 9      -220.221 9        57.883               
> 2022 06 08 00 01 32.0000000  0  7                                             
G01  23378356.669 8 122854101.623 8      4123.002 8        51.544               
G09  24864681.709 7 130664785.261 7     -2529.615 7        47.282               
G04  25491215.979 7 133957244.421 7     -2706.959 7        45.424               
G21  20915334.036 9 109910797.996 9      2134.972 9        55.850               
G16  22780773.137 9 119713780.195 9     -2357.475 9        54.283               
G10  25243961.058 8 132657909.652 8      1382.414 8        48.940               
G08  20292066.473 9 106635523.021 9      -216.792 9        58.470               
> 2022 06 08 00 01 33.0000000  0  7                                             
G01  23377573.854 8 122849980.367 8      4119.957 8        52.050               
G09  24865160.875 7 130667319.848 7     -2537.964 7        47.467               
G04  25491732.180 7 133959952.186 7     -2707.331 7        46.947               
G21  20914925.961 9 109908661.832 9      2134.900 9        54.676               
G16  22781220.559 8 119716130.006 8     -2347.507 8        53.730               
G10  25243693.871 7 132656520.913 7      1391.006 7        46.680               
G08  20292101.899 9 106635740.343 9      -218.679 9        56.460               
> 2022 06 08 00 01 34.0000000  0  7                                             
G01  23376790.449 8 122845861.126 8      4118.833 8        51.244               
G09  24865643.589 7 130669859.031 7     -2542.833 7        46.697               
G04  25492247.227 7 133962662.485 7     -2708.875 7        44.846               
G21  20914517.493 9 109906527.579 9      2135.360 9        54.033               
G16  22781667.437 9 119718476.913 9     -2343.758 9        54.935               
G10  25243429.097 7 132655128.054 7      1396.569 7        47.558               
G08  20292150.627 9 106635960.559 9      -219.716 9        58.397               
> 2022 06 08 00 01 35.0000000  0  7                                             
G01  23376005.713 8 122841743.636 8      4114.227 8        48.882               
G09  24866132.200 7 130672413.085 7     -2560.413 7        46.931               
G04  25492765.456 7 133965383.472 7     -2727.710 7        45.522               
G21  20914112.653 9 109904384.811 9      2149.282 9        55.441               
G16  22782110.142 9 119720802.069 9     -2309.712 9        54.780               
G10  25243162.509 8 132653715.585 8      1426.109 8        48.425               
G08  20292195.309 9 106636171.553 9      -202.189 9        60.491               
> 2022 06 08 00 01 36.0000000  0  7                                             
G01  23375222.129 8 122837623.058 8      4121.453 8        49.455               
G09  24866621.963 7 130674977.433 7     -2569.153 7        45.623               
G04  25493284.283 7 133968114.158 7     -2738.898 7        44.926               
G21  20913701.942 9 109902222.587 9      2174.661 9        56.740               
G16  22782547.826 8 119723099.934 8     -2285.859 8        53.338               
G10  25242890.891 7 132652284.333 7      1437.239 7        47.440               
G08  20292223.935 9 106636357.518 9      -165.219 9        59.527               
> 2022 06 08 00 01 37.0000000  0  7                                             
G01  23374442.379 8 122833530.284 8      4067.863 8        50.192               
G09  24867109.564 7 130677560.159 7     -2601.300 7        45.532               
G04  25493809.212 7 133970877.379 7     -2790.388 7        44.678               
G21  20913288.748 9 109900069.458 9      2135.136 9        54.096               
G16  22782982.186 8 119725387.978 8     -2284.865 8        52.881               
G10  25242616.092 7 132650840.759 7      1456.051 7        46.038               
G08  20292250.203 9 106636518.618 9      -158.593 9        59.647               
> 2022 06 08 00 01 38.0000000  0  7                                             
G01  23373672.626 8 122829479.222 8      4051.568 8        49.979               
G09  24867612.586 7 130680193.393 7     -2658.417 7        44.865               
G04  25494344.175 7 133973693.048 7     -2833.006 7        45.818               
G21  20912882.701 9 109897935.184 9      2145.968 9        54.859               
G16  22783410.721 8 119727645.196 8     -2225.157 8        53.072               
G10  25242332.252 7 132649353.314 7      1519.366 7        46.567               
G08  20292283.501 9 106636671.690 9      -145.624 9        58.614               
> 2022 06 08 00 01 39.0000000  0  7                                             
G01  23372901.497 8 122825427.906 8      4051.414 8        51.734               
G09  24868121.746 7 130682860.357 7     -2668.592 7        45.970               
G04  25494888.189 7 133976528.309 7     -2840.282 7        44.442               
G21  20912475.672 9 109895781.366 9      2155.891 9        57.583               
G16  22783829.267 8 119729853.521 8     -2202.649 8        51.179               
G10  25242039.512 8 132647820.136 8      1537.224 8        49.111               
G08  20292312.637 9 106636812.605 9      -138.521 9        59.224               
> 2022 06 08 00 01 40.0000000  0  7                                             
G01  23372131.315 8 122821377.733 8      4051.440 8        51.061               
G09  24868626.376 7 130685531.011 7     -2674.072 7        46.338               
G04  25495429.361 7 133979366.883 7     -2840.712 7        47.325               
G21  20912066.114 9 109893625.659 9      2156.068 9        56.991               
G16  22784248.724 8 119732056.435 8     -2203.010 8        53.755               
G10  25241745.844 8 132646282.511 8      1538.242 8        48.926               
G08  20292343.595 9 106636949.806 9      -136.607 9        57.455               
> 2022 06 08 00 01 41.0000000  0  7                                             
G01  23371360.562 8 122817327.525 8      4050.975 8        50.778               
G09  24869138.189 7 130688202.199 7     -2668.021 7        46.171               
G04  25495971.337 7 133982206.472 7     -2840.156 7        47.338               
G21  20911651.928 9 109891468.179 9      2159.348 9        55.357               
G16  22784669.754 8 119734256.977 8     -2199.019 8        51.361               
G10  25241453.042 7 132644743.918 7      1535.820 7        46.671               
G08  20292364.118 9 106637083.408 9      -131.040 9        55.555               
> 2022 06 08 00 01 42.0000000  0  7                                             
G01  23370590.657 8 122813283.007 8      4031.278 8        49.426               
G09  24869645.232 7 130690878.461 7     -2686.785 7        47.303               
G04  25496507.819 7 133985052.445 7     -2857.971 7        46.836               
G21  20911242.352 8 109889313.683 8      2141.339 8        53.750               
G16  22785088.765 8 119736455.134 8     -2198.001 8        51.877               
G10  25241159.275 7 132643201.827 7      1546.672 7        46.937               
G08  20292387.615 9 106637214.796 9      -135.669 9        56.637               
> 2022 06 08 00 01 43.0000000  0  7                                             
G01  23369825.095 8 122809263.091 8      4015.452 8        49.593               
G09  24870157.814 7 130693572.666 7     -2696.033 7        46.091               
G04  25497051.895 7 133987920.102 7     -2872.190 7        47.247               
G21  20910840.209 9 109887181.245 9      2128.382 9        54.835               
G16  22785505.229 8 119738655.783 8     -2202.618 8        53.810               
G10  25240864.445 7 132641651.381 7      1550.491 7        47.338               
G08  20292409.156 9 106637353.741 9      -140.576 9        57.194               
> 2022 06 08 00 01 44.0000000  0  7                                             
G01  23369062.087 8 122805256.049 8      3995.526 8        49.855               
G09  24870670.735 8 130696258.804 8     -2666.521 8        48.106               
G04  25497598.383 7 133990789.925 7     -2864.801 7        47.227               
G21  20910435.619 9 109885068.281 9      2089.643 9        54.482               
G16  22785928.180 8 119740880.800 8     -2259.550 8        51.412               
G10  25240573.368 7 132640119.728 7      1501.272 7        46.444               
G08  20292441.624 9 106637498.242 9      -153.068 9        57.909               
> 2022 06 08 00 01 45.0000000  0  7                                             
G01  23368304.923 8 122801277.836 8      3956.997 8        50.451               
G09  24871172.301 8 130698912.495 8     -2648.050 8        49.870               
G04  25498145.417 7 133993656.702 7     -2875.169 7        46.461               
G21  20910042.357 9 109883006.323 9      2035.260 9        54.209               
G16  22786366.132 8 119743180.599 8     -2328.143 8        53.363               
G10  25240293.619 7 132638649.144 7      1448.770 7        46.491               
G08  20292476.165 9 106637659.224 9      -167.236 9        57.879               
> 2022 06 08 00 01 46.0000000  0  7                                             
G01  23367558.427 8 122797352.290 8      3891.387 8        51.143               
G09  24871681.264 8 130701568.585 8     -2671.390 8        48.441               
G04  25498697.739 7 133996553.896 7     -2927.671 7        47.993               
G21  20909664.303 9 109881002.752 9      1969.894 9        54.570               
G16  22786813.117 9 119745529.258 9     -2363.083 9        54.190               
G10  25240020.884 8 132637206.306 8      1442.279 8        48.416               
G08  20292506.015 9 106637830.384 9      -173.621 9        59.249               
> 2022 06 08 00 01 47.0000000  0  7                                             
G01  23366822.831 8 122793490.848 8      3852.659 8        50.426               
G09  24872191.148 8 130704252.903 8     -2687.032 8        50.193               
G04  25499257.486 7 133999504.840 7     -2958.389 7        47.420               
G21  20909288.839 8 109879052.415 8      1948.963 8        52.421               
G16  22787263.863 9 119747898.163 9     -2365.909 9        54.799               
G10  25239746.720 7 132635761.756 7      1446.651 7        46.724               
G08  20292536.357 9 106637998.476 9      -155.136 9        56.813               
> 2022 06 08 00 01 48.0000000  0  7                                             
G01  23366091.881 8 122789634.829 8      3858.946 8        49.649               
G09  24872701.246 8 130706938.233 8     -2682.761 8        49.475               
G04  25499821.165 8 134002464.633 8     -2957.928 8        48.462               
G21  20908920.594 9 109877097.797 9      1957.305 9        54.831               
G16  22787713.626 8 119750262.003 8     -2364.583 8        53.273               
G10  25239470.956 8 132634316.109 8      1444.132 8        48.745               
G08  20292559.229 9 106638147.044 9      -145.107 9        56.756               
> 2022 06 08 00 01 49.0000000  0  7                                             
G01  23365355.543 8 122785774.624 8      3860.381 8        50.181               
G09  24873213.274 7 130709614.810 7     -2673.385 7        47.981               
G04  25500383.521 7 134005419.684 7     -2953.100 7        47.556               
G21  20908544.156 9 109875138.335 9      1960.956 9        55.144               
G16  22788164.622 8 119752629.467 8     -2369.275 8        52.180               
G10  25239196.041 8 132632878.539 8      1432.343 8        49.369               
G08  20292591.617 9 106638286.889 9      -136.585 9        57.245               
> 2022 06 08 00 01 50.0000000  0  7                                             
G01  23364617.811 8 122781912.153 8      3861.866 8        50.298               
G09  24873717.466 8 130712286.463 8     -2672.138 8        48.889               
G04  25500945.537 7 134008371.840 7     -2952.061 7        46.602               
G21  20908174.544 9 109873176.718 9      1961.987 9        58.169               
G16  22788615.315 8 119754999.410 8     -2369.956 8        53.442               
G10  25238922.583 7 132631445.816 7      1433.060 7        47.861               
G08  20292621.771 9 106638422.597 9      -134.776 9        57.693               
> 2022 06 08 00 01 51.0000000  0  7                                             
G01  23363886.602 8 122778048.236 8      3869.092 8        51.757               
G09  24874228.091 8 130714951.600 8     -2655.701 8        49.336               
G04  25501506.607 7 134011319.201 7     -2937.185 7        46.766               
G21  20907799.205 9 109871217.333 9      1956.641 9        57.348               
G16  22789067.893 8 119757377.215 8     -2388.176 8        51.277               
G10  25238651.894 8 132630021.389 8      1411.450 8        48.731               
G08  20292648.065 9 106638560.073 9      -143.515 9        57.264               
> 2022 06 08 00 01 52.0000000  0  7                                             
G01  23363144.323 8 122774151.523 8      3930.236 8        49.269               
G09  24874730.515 8 130717586.879 8     -2613.674 8        49.807               
G04  25502058.733 7 134014225.914 7     -2874.514 7        46.925               
G21  20907426.332 9 109869246.912 9      1987.992 9        55.531               
G16  22789523.633 8 119759773.033 8     -2400.574 8        49.091               
G10  25238387.977 8 132628621.470 8      1389.080 8        48.070               
G08  20292673.225 9 106638718.621 9      -172.064 9        57.498               
> 2022 06 08 00 01 53.0000000  0  7                                             
G01  23362393.225 8 122770196.803 8      3973.338 8        51.449               
G09  24875218.625 8 130720176.329 8     -2562.934 8        48.067               
G04  25502598.592 7 134017066.724 7     -2809.409 7        46.044               
G21  20907041.711 9 109867249.545 9      1998.204 9        55.410               
G16  22789983.430 8 119762187.720 8     -2435.868 8        52.194               
G10  25238126.991 8 132627254.131 8      1341.820 8        49.937               
G08  20292703.897 9 106638905.432 9      -200.508 9        56.946               
> 2022 06 08 00 01 54.0000000  0  7                                             
G01  23361633.917 8 122766212.021 8      3990.881 8        50.675               
G09  24875701.687 7 130722711.359 7     -2519.518 7        46.037               
G04  25503130.749 8 134019853.957 8     -2770.741 8        48.128               
G21  20906668.069 9 109865258.251 9      1987.544 9        54.816               
G16  22790454.815 8 119764658.226 8     -2490.030 8        51.595               
G10  25237875.530 8 132625946.211 8      1289.426 8        49.044               
G08  20292752.617 9 106639122.414 9      -225.953 9        57.733               
> 2022 06 08 00 01 55.0000000  0  7                                             
G01  23360875.323 8 122762221.533 8      3985.596 8        52.266               
G09  24876185.232 7 130725233.358 7     -2537.849 7        46.120               
G04  25503657.626 7 134022629.407 7     -2787.732 7        47.064               
G21  20906285.047 9 109863269.592 9      1992.349 9        55.219               
G16  22790928.004 8 119767142.910 8     -2468.859 8        52.593               
G10  25237632.824 7 132624653.394 7      1308.759 7        47.564               
G08  20292798.147 9 106639345.551 9      -214.972 9        57.864               
> 2022 06 08 00 01 56.0000000  0  7                                             
G01  23360118.070 8 122758249.470 8      3956.260 8        51.184               
G09  24876673.020 7 130727801.409 7     -2600.677 7        45.863               
G04  25504193.911 7 134025445.122 7     -2846.807 7        47.453               
G21  20905909.404 9 109861269.806 9      1999.895 9        56.422               
G16  22791391.062 9 119769574.645 9     -2407.340 9        54.463               
G10  25237376.090 7 132623307.237 7      1375.725 7        46.523               
G08  20292829.454 9 106639544.726 9      -185.341 9        58.162               
> 2022 06 08 00 01 57.0000000  0  7                                             
G01  23359370.564 8 122754319.228 8      3914.488 8        52.796               
G09  24877168.921 7 130730422.200 7     -2639.803 7        46.281               
G04  25504741.338 7 134028319.106 7     -2894.205 7        47.001               
G21  20905525.837 9 109859279.502 9      1985.519 9        56.211               
G16  22791845.981 8 119771965.384 8     -2381.284 8        53.546               
G10  25237108.564 8 132621911.683 8      1409.420 8        49.225               
G08  20292858.259 9 106639718.462 9      -164.957 9        57.740               
> 2022 06 08 00 01 58.0000000  0  7                                             
G01  23358624.898 8 122750402.693 8      3925.035 8        50.535               
G09  24877674.919 7 130733066.404 7     -2647.276 7        46.338               
G04  25505291.909 7 134031216.298 7     -2894.576 7        46.937               
G21  20905151.892 8 109857287.803 8      2005.081 8        53.889               
G16  22792296.664 8 119774332.880 8     -2352.754 8        51.190               
G10  25236838.108 7 132620491.462 7      1431.158 7        47.500               
G08  20292895.650 9 106639879.379 9      -158.063 9        56.318               
> 2022 06 08 00 01 59.0000000  0  7                                             
G01  23357873.452 8 122746450.196 8      3974.549 8        48.857               
G09  24878178.360 7 130735712.648 7     -2655.350 7        46.744               
G04  25505839.693 8 134034093.042 8     -2868.914 8        48.705               
G21  20904760.667 9 109855257.296 9      2054.575 9        54.203               
G16  22792740.459 8 119776664.077 8     -2306.335 8        51.914               
G10  25236564.953 7 132619048.706 7      1460.964 7        46.887               
G08  20292930.539 9 106640037.577 9      -155.232 9        56.223               
> 2022 06 08 00 02 00.0000000  0  7                                             
G01  23357114.859 8 122742467.025 8      3991.157 8        50.760               
G09  24878684.769 7 130738385.531 7     -2695.753 7        46.202               
G04  25506388.558 7 134036967.949 7     -2885.554 7        46.588               
G21  20904367.719 9 109853177.687 9      2104.039 9        55.408               
G16  22793170.334 8 119778926.999 8     -2220.683 8        53.271               
G10  25236281.309 7 132617552.399 7      1532.865 7        46.807               
G08  20292953.286 9 106640181.156 9      -131.710 9        57.188               
> 2022 06 08 00 02 01.0000000  0  7                                             
G01  23356354.112 8 122738468.779 8      4003.428 8        50.778               
G09  24879202.845 7 130741091.207 7     -2707.416 7        45.700               
G04  25506933.340 7 134039853.250 7     -2878.203 7        46.572               
G21  20903966.604 9 109851063.204 9      2117.696 9        54.790               
G16  22793587.817 8 119781128.492 8     -2198.559 8        51.113               
G10  25235986.318 8 132616003.340 8      1551.059 8        48.856               
G08  20292975.658 9 106640311.435 9      -135.934 9        56.271               
> 2022 06 08 00 02 02.0000000  0  7                                             
G01  23355591.122 8 122734463.475 8      3999.700 8        49.631               
G09  24879712.487 7 130743789.710 7     -2685.442 7        46.931               
G04  25507482.857 7 134042726.256 7     -2868.729 7        47.614               
G21  20903561.004 8 109848952.308 8      2092.356 8        53.759               
G16  22794008.132 8 119783339.581 8     -2236.488 8        52.916               
G10  25235693.481 8 132614462.474 8      1521.959 8        48.490               
G08  20292999.781 9 106640457.303 9      -157.715 9        56.320               
> 2022 06 08 00 02 03.0000000  0  7                                             
G01  23354833.404 8 122730481.286 8      3969.354 8        49.844               
G09  24880223.524 7 130746458.500 7     -2657.578 7        47.823               
G04  25508026.825 7 134045592.483 7     -2869.165 7        46.178               
G21  20903171.593 9 109846888.311 9      2039.472 9        55.386               
G16  22794442.618 8 119785619.404 8     -2310.761 8        53.064               
G10  25235410.614 7 132612976.841 7      1461.561 7        47.962               
G08  20293035.930 9 106640625.538 9      -174.450 9        57.151               
> 2022 06 08 00 02 04.0000000  0  7                                             
G01  23354084.121 8 122726545.186 8      3902.799 8        49.886               
G09  24880729.994 7 130749121.948 7     -2679.346 7        47.915               
G04  25508577.361 7 134048481.854 7     -2916.843 7        45.238               
G21  20902787.918 9 109844877.963 9      1981.851 9        55.954               
G16  22794886.520 8 119787951.269 8     -2344.303 8        52.564               
G10  25235133.465 7 132611525.074 7      1452.349 7        47.317               
G08  20293073.643 9 106640801.821 9      -177.294 9        57.001               
> 2022 06 08 00 02 05.0000000  0  7                                             
G01  23353348.051 8 122722678.261 8      3847.102 8        49.500               
G09  24881241.290 7 130751819.972 7     -2703.540 7        47.363               
G04  25509139.574 7 134051430.100 7     -2964.085 7        45.986               
G21  20902416.627 9 109842925.475 9      1934.953 9        56.686               
G16  22795333.943 8 119790301.880 8     -2359.816 8        51.406               
G10  25234854.217 7 132610066.738 7      1457.906 7        46.948               
G08  20293104.869 9 106640979.058 9      -176.508 9        55.857               
> 2022 06 08 00 02 06.0000000  0  7                                             
G01  23352616.198 8 122718830.607 8      3849.892 8        49.689               
G09  24881755.721 8 130754508.561 8     -2678.511 8        49.599               
G04  25509701.671 7 134054386.692 7     -2952.542 7        47.675               
G21  20902047.480 9 109840994.124 9      1930.014 9        55.333               
G16  22795786.065 8 119792679.696 8     -2388.886 8        49.273               
G10  25234580.803 7 132608630.790 7      1421.362 7        47.438               
G08  20293135.711 9 106641150.953 9      -168.979 9        55.608               
> 2022 06 08 00 02 07.0000000  0  7                                             
G01  23351887.106 8 122714982.078 8      3845.602 8        49.561               
G09  24882262.093 8 130757186.285 8     -2678.739 8        49.937               
G04  25510262.446 8 134057337.045 8     -2952.615 8        49.183               
G21  20901684.372 9 109839066.786 9      1924.406 9        55.354               
G16  22796241.296 8 119795070.948 8     -2389.647 8        50.944               
G10  25234312.009 7 132607208.934 7      1422.287 7        45.784               
G08  20293163.899 9 106641323.455 9      -176.701 9        57.116               
> 2022 06 08 00 02 08.0000000  0  7                                             
G01  23351152.779 8 122711137.962 8      3841.738 8        48.851               
G09  24882775.033 8 130759870.697 8     -2688.522 8        48.076               
G04  25510824.668 7 134060290.661 7     -2951.832 7        47.338               
G21  20901314.090 9 109837146.091 9      1918.871 9        55.547               
G16  22796696.161 8 119797461.690 8     -2391.706 8        52.093               
G10  25234042.151 7 132605782.524 7      1428.778 7        47.908               
G08  20293206.204 9 106641505.207 9      -185.014 9        57.757               
> 2022 06 08 00 02 09.0000000  0  7                                             
G01  23350421.730 8 122707295.973 8      3842.352 8        49.863               
G09  24883285.274 8 130762555.645 8     -2683.032 8        48.130               
G04  25511386.523 7 134063244.088 7     -2953.894 7        45.826               
G21  20900954.869 9 109835230.487 9      1909.742 9        54.739               
G16  22797151.133 8 119799856.232 8     -2401.643 8        52.003               
G10  25233771.024 8 132604357.800 8      1417.266 8        48.157               
G08  20293245.570 9 106641692.733 9      -192.923 9        57.660               
> 2022 06 08 00 02 10.0000000  0  7                                             
G01  23349691.933 8 122703449.038 8      3865.936 8        50.006               
G09  24883794.219 7 130765235.209 7     -2671.332 7        47.422               
G04  25511947.709 7 134066189.407 7     -2929.339 7        47.397               
G21  20900585.749 9 109833316.201 9      1932.273 9        54.976               
G16  22797607.928 8 119802256.741 8     -2393.286 8        51.539               
G10  25233498.369 7 132602938.924 7      1420.041 7        47.260               
G08  20293275.223 9 106641888.412 9      -196.358 9        57.193               
> 2022 06 08 00 02 11.0000000  0  7                                             
G01  23348947.330 8 122699551.087 8      3914.516 8        50.491               
G09  24884304.406 7 130767900.831 7     -2668.245 7        46.777               
G04  25512500.175 7 134069094.942 7     -2891.571 7        46.793               
G21  20900217.307 9 109831358.198 9      1975.280 9        54.871               
G16  22798059.397 8 119804631.321 8     -2357.571 8        51.342               
G10  25233226.296 7 132601511.340 7      1442.365 7        46.995               
G08  20293309.389 9 106642089.715 9      -208.968 9        58.252               
> 2022 06 08 00 02 12.0000000  0  7                                             
G01  23348202.800 8 122695635.021 8      3914.580 8        50.882               
G09  24884812.512 7 130770591.656 7     -2708.087 7        46.225               
G04  25513051.782 7 134071995.926 7     -2907.453 7        45.884               
G21  20899836.992 8 109829382.150 8      1975.850 8        53.110               
G16  22798503.907 8 119806966.305 8     -2321.643 8        51.476               
G10  25232947.896 7 132600044.484 7      1485.511 7        46.125               
G08  20293359.797 9 106642311.995 9      -232.165 9        55.503               
> 2022 06 08 00 02 13.0000000  0  7                                             
G01  23347455.812 8 122691711.557 8      3933.412 8        50.783               
G09  24885330.651 7 130773295.277 7     -2702.828 7        46.644               
G04  25513604.471 7 134074894.489 7     -2886.874 7        46.838               
G21  20899464.646 9 109827400.907 9      1991.479 9        56.019               
G16  22798946.166 8 119809284.535 8     -2313.805 8        51.123               
G10  25232666.048 8 132598559.447 8      1487.723 8        49.257               
G08  20293403.889 9 106642548.952 9      -240.801 9        57.757               
> 2022 06 08 00 02 14.0000000  0  7                                             
G01  23346702.213 8 122687749.982 8      3975.696 8        50.180               
G09  24885839.909 7 130775987.120 7     -2694.107 7        46.972               
G04  25514149.637 7 134077761.592 7     -2855.405 7        47.692               
G21  20899076.674 9 109825389.415 9      2025.636 9        56.094               
G16  22799384.323 8 119811586.620 8     -2286.687 8        50.359               
G10  25232383.968 8 132597070.295 8      1503.002 8        48.799               
G08  20293446.382 9 106642793.799 9      -254.467 9        57.821               
> 2022 06 08 00 02 15.0000000  0  7                                             
G01  23345944.495 8 122683761.284 8      3997.598 8        49.845               
G09  24886354.341 7 130778686.889 7     -2693.897 7        47.738               
G04  25514692.132 7 134080611.963 7     -2840.546 7        46.783               
G21  20898693.777 9 109823354.148 9      2047.776 9        54.671               
G16  22799816.968 8 119813859.975 8     -2267.663 8        53.409               
G10  25232096.107 7 132595558.371 7      1511.453 7        47.958               
G08  20293500.757 9 106643052.731 9      -254.732 9        59.015               
> 2022 06 08 00 02 16.0000000  0  7                                             
G01  23345181.327 8 122679753.629 8      4012.378 8        50.066               
G09  24886867.378 8 130781373.581 8     -2676.223 8        48.811               
G04  25515233.751 7 134083446.998 7     -2828.246 7        46.328               
G21  20898299.774 8 109821299.591 8      2059.892 8        52.882               
G16  22800250.408 8 119816128.102 8     -2274.046 8        52.760               
G10  25231808.764 8 132594051.696 8      1492.355 8        48.300               
G08  20293549.540 9 106643300.908 9      -239.225 9        56.860               
> 2022 06 08 00 02 17.0000000  0  7                                             
G01  23344415.398 8 122675727.314 8      4049.695 8        48.748               
G09  24887367.523 8 130784018.345 8     -2615.743 8        48.268               
G04  25515765.435 7 134086256.522 7     -2784.807 7        46.901               
G21  20897906.253 8 109819230.558 8      2089.465 8        53.422               
G16  22800686.626 8 119818422.086 8     -2305.269 8        53.156               
G10  25231529.954 8 132592585.883 8      1439.302 8        48.197               
G08  20293587.726 9 106643524.163 9      -207.735 9        55.877               
> 2022 06 08 00 02 18.0000000  0  7                                             
G01  23343638.497 8 122671646.157 8      4105.748 8        50.321               
G09  24887864.380 8 130786612.142 8     -2581.491 8        48.548               
G04  25516291.776 7 134089012.246 7     -2732.652 7        46.399               
G21  20897508.149 9 109817116.721 9      2134.726 9        54.735               
G16  22801123.908 8 119820723.423 8     -2294.825 8        52.736               
G10  25231254.118 7 132591153.777 7      1431.509 7        45.302               
G08  20293625.858 9 106643728.892 9      -202.019 9        57.683               
> 2022 06 08 00 02 19.0000000  0  7                                             
G01  23342855.977 8 122667535.532 8      4112.271 8        49.438               
G09  24888354.403 8 130789181.610 8     -2553.397 8        48.678               
G04  25516809.138 7 134091739.385 7     -2717.868 7        46.457               
G21  20897097.528 9 109814979.641 9      2134.449 9        56.266               
G16  22801562.065 8 119823026.450 8     -2321.964 8        53.728               
G10  25230985.761 7 132589736.553 7      1396.948 7        47.745               
G08  20293667.037 9 106643927.626 9      -195.050 9        58.586               
> 2022 06 08 00 02 20.0000000  0  7                                             
G01  23342071.902 8 122663408.698 8      4136.544 8        49.345               
G09  24888833.391 8 130791711.741 8     -2520.247 8        48.972               
G04  25517323.149 7 134094438.896 7     -2692.253 7        47.845               
G21  20896688.184 9 109812838.582 9      2144.998 9        55.837               
G16  22802006.298 8 119825362.124 8     -2341.164 8        53.115               
G10  25230725.669 7 132588360.956 7      1367.971 7        47.116               
G08  20293702.767 9 106644119.640 9      -189.240 9        56.669               
> 2022 06 08 00 02 21.0000000  0  7                                             
G01  23341283.905 8 122659276.539 8      4127.359 8        49.208               
G09  24889309.886 8 130794226.162 8     -2508.047 8        49.062               
G04  25517835.436 7 134097128.924 7     -2692.742 7        47.601               
G21  20896284.791 9 109810695.439 9      2136.913 9        54.247               
G16  22802453.185 9 119827710.241 9     -2359.890 9        54.437               
G10  25230468.015 7 132587002.234 7      1346.456 7        47.491               
G08  20293736.351 9 106644305.345 9      -177.706 9        56.752               
> 2022 06 08 00 02 22.0000000  0  7                                             
G01  23340499.839 8 122655150.253 8      4126.211 8        50.242               
G09  24889784.541 8 130796716.415 8     -2483.025 8        48.022               
G04  25518345.516 8 134099815.597 8     -2684.437 8        49.846               
G21  20895878.405 9 109808558.872 9      2136.286 9        55.799               
G16  22802905.521 8 119830086.401 8     -2383.921 8        53.361               
G10  25230213.954 8 132585675.653 8      1316.730 8        48.192               
G08  20293763.736 9 106644472.174 9      -158.256 9        56.834               
> 2022 06 08 00 02 23.0000000  0  7                                             
G01  23339716.827 8 122651033.701 8      4114.222 8        50.381               
G09  24890255.104 8 130799189.565 8     -2460.824 8        49.974               
G04  25518859.161 7 134102505.132 7     -2684.126 7        47.481               
G21  20895468.945 9 109806429.376 9      2128.775 9        55.801               
G16  22803362.244 8 119832484.533 8     -2412.465 8        52.865               
G10  25229965.833 8 132584373.947 8      1282.635 8        48.145               
G08  20293798.080 9 106644618.773 9      -133.539 9        57.803               
> 2022 06 08 00 02 24.0000000  0  7                                             
G01  23338930.617 8 122646917.015 8      4113.980 8        51.734               
G09  24890724.461 8 130801639.734 8     -2448.787 8        51.167               
G04  25519368.044 7 134105188.868 7     -2688.768 7        46.800               
G21  20895065.856 9 109804298.745 9      2129.790 9        55.698               
G16  22803822.747 9 119834902.833 9     -2419.204 9        54.152               
G10  25229725.307 8 132583099.211 8      1272.007 8        49.555               
G08  20293824.526 9 106644744.265 9      -121.357 9        58.375               
> 2022 06 08 00 02 25.0000000  0  7                                             
G01  23338154.923 8 122642827.074 8      4064.883 8        50.777               
G09  24891194.452 8 130804103.461 8     -2475.513 8        49.134               
G04  25519882.056 7 134107895.409 7     -2723.268 7        45.333               
G21  20894666.403 9 109802190.427 9      2084.588 9        55.096               
G16  22804284.232 9 119837328.107 9     -2437.330 9        55.409               
G10  25229482.771 8 132581821.846 8      1275.114 8        48.335               
G08  20293848.202 9 106644869.899 9      -128.509 9        56.766               
> 2022 06 08 00 02 26.0000000  0  7                                             
G01  23337383.017 8 122638772.210 8      4047.512 8        51.680               
G09  24891664.988 8 130806580.926 8     -2482.686 8        48.556               
G04  25520402.544 7 134110628.002 7     -2734.422 7        44.859               
G21  20894267.932 9 109800116.445 9      2066.872 9        55.293               
G16  22804748.666 8 119839770.812 8     -2446.181 8        51.243               
G10  25229240.315 8 132580547.298 8      1279.168 8        48.541               
G08  20293869.779 9 106645002.829 9      -141.928 9        58.089               
> 2022 06 08 00 02 27.0000000  0  7                                             
G01  23336613.094 8 122634729.997 8      4037.674 8        50.627               
G09  24892139.544 7 130809090.969 7     -2531.236 7        47.599               
G04  25520927.679 7 134113377.228 7     -2759.400 7        46.267               
G21  20893878.790 9 109798055.281 9      2061.194 9        56.037               
G16  22805209.553 8 119842194.227 8     -2402.546 8        50.623               
G10  25228990.158 8 132579241.465 8      1332.949 8        50.042               
G08  20293896.351 9 106645161.254 9      -172.192 9        57.277               
> 2022 06 08 00 02 28.0000000  0  7                                             
G01  23335841.849 8 122630672.794 8      4080.777 8        51.210               
G09  24892622.481 7 130811630.857 7     -2531.379 7        47.531               
G04  25521449.714 7 134116125.154 7     -2728.922 7        45.763               
G21  20893484.143 9 109795979.017 9      2097.169 9        56.123               
G16  22805662.693 8 119844576.082 8     -2368.539 8        53.127               
G10  25228731.995 8 132577892.476 8      1354.674 8        50.404               
G08  20293933.929 9 106645343.887 9      -189.576 9        58.666               
> 2022 06 08 00 02 29.0000000  0  7                                             
G01  23335052.235 8 122626558.543 8      4129.196 8        50.621               
G09  24893103.900 7 130814151.438 7     -2517.153 7        46.177               
G04  25521963.690 7 134118825.169 7     -2685.601 7        46.247               
G21  20893076.238 9 109793858.289 9      2131.926 9        54.519               
G16  22806111.715 8 119846935.890 8     -2355.206 8        52.812               
G10  25228476.343 8 132576539.438 8      1348.521 8        48.267               
G08  20293975.761 9 106645538.802 9      -199.877 9        57.260               
> 2022 06 08 00 02 30.0000000  0  7                                             
G01  23334278.766 8 122622429.960 8      4126.336 8        51.996               
G09  24893584.818 7 130816669.148 7     -2522.040 7        46.935               
G04  25522475.637 7 134121512.440 7     -2690.279 7        44.272               
G21  20892671.675 9 109791728.542 9      2129.850 9        57.082               
G16  22806559.817 8 119849289.925 8     -2349.205 8        53.314               
G10  25228218.761 7 132575183.869 7      1361.585 7        47.510               
G08  20294011.990 9 106645742.420 9      -205.737 9        59.391               
> 2022 06 08 00 02 31.0000000  0  7                                             
G01  23333488.311 8 122618307.199 8      4120.047 8        50.931               
G09  24894067.362 8 130819207.016 8     -2542.173 8        48.118               
G04  25522989.121 7 134124211.347 7     -2704.723 7        43.844               
G21  20892270.515 9 109789599.877 9      2127.563 9        56.481               
G16  22807004.192 8 119851625.850 8     -2329.502 8        52.646               
G10  25227954.237 8 132573806.437 8      1385.819 8        50.742               
G08  20294046.754 9 106645951.964 9      -211.929 9        58.552               
> 2022 06 08 00 02 32.0000000  0  7                                             
G01  23332705.925 8 122614187.945 8      4118.376 8        50.826               
G09  24894548.378 7 130821753.663 7     -2544.037 7        46.812               
G04  25523503.794 7 134126915.622 7     -2708.499 7        45.237               
G21  20891862.217 9 109787473.190 9      2124.808 9        55.769               
G16  22807448.032 8 119853955.015 8     -2328.940 8        51.634               
G10  25227690.499 8 132572420.297 8      1383.386 8        48.553               
G08  20294090.980 9 106646164.808 9      -214.986 9        57.944               
> 2022 06 08 00 02 33.0000000  0  7                                             
G01  23331924.504 8 122610068.663 8      4119.416 8        51.343               
G09  24895033.575 7 130824297.088 7     -2536.508 7        45.775               
G04  25524016.224 7 134129617.342 7     -2698.848 7        46.590               
G21  20891457.832 9 109785349.368 9      2120.404 9        56.488               
G16  22807892.381 8 119856289.345 8     -2342.839 8        50.865               
G10  25227429.683 7 132571039.056 7      1371.186 7        46.577               
G08  20294138.914 9 106646380.392 9      -218.338 9        59.104               
> 2022 06 08 00 02 34.0000000  0  7                                             
G01  23331137.427 8 122605948.307 8      4117.512 8        50.512               
G09  24895517.183 7 130826826.456 7     -2532.471 7        46.374               
G04  25524530.396 7 134132310.412 7     -2699.212 7        46.806               
G21  20891058.727 9 109783231.863 9      2114.151 9        56.631               
G16  22808340.107 8 119858641.936 8     -2351.955 8        53.572               
G10  25227170.698 7 132569676.311 7      1361.576 7        46.682               
G08  20294172.793 9 106646599.210 9      -214.207 9        57.435               
> 2022 06 08 00 02 35.0000000  0  7                                             
G01  23330358.963 8 122601865.238 8      4050.256 8        50.784               
G09  24896003.971 7 130829382.214 7     -2582.279 7        46.759               
G04  25525049.295 7 134135042.606 7     -2766.615 7        46.554               
G21  20890656.951 8 109781135.929 8      2074.751 8        53.410               
G16  22808787.065 8 119860989.097 8     -2341.940 8        50.863               
G10  25226905.522 7 132568298.042 7      1397.933 7        44.761               
G08  20294206.459 9 106646805.055 9      -198.763 9        56.795               
> 2022 06 08 00 02 36.0000000  0  7                                             
G01  23329592.239 8 122597838.592 8      4011.704 8        49.255               
G09  24896497.218 7 130831993.826 7     -2637.214 7        47.462               
G04  25525584.731 7 134137840.650 7     -2826.365 7        44.169               
G21  20890264.172 8 109779068.479 8      2066.382 8        53.667               
G16  22809227.733 8 119863309.755 8     -2297.887 8        53.759               
G10  25226635.199 7 132566876.118 7      1447.651 7        46.288               
G08  20294250.917 9 106646995.944 9      -183.647 9        57.918               
> 2022 06 08 00 02 37.0000000  0  7                                             
G01  23328831.724 8 122593834.255 8      3997.096 8        48.422               
G09  24897009.121 7 130834666.751 7     -2700.128 7        47.159               
G04  25526122.651 7 134140685.168 7     -2866.043 7        44.706               
G21  20889872.501 9 109776994.509 9      2072.821 9        54.419               
G16  22809655.509 8 119865567.651 8     -2234.330 8        53.951               
G10  25226352.181 7 132565385.305 7      1520.433 7        47.305               
G08  20294290.613 9 106647176.207 9      -187.071 9        57.418               
> 2022 06 08 00 02 38.0000000  0  7                                             
G01  23328073.390 8 122589851.271 8      3968.788 8        50.879               
G09  24897524.062 7 130837378.839 7     -2724.319 7        45.306               
G04  25526670.497 7 134143555.451 7     -2885.221 7        45.129               
G21  20889476.631 9 109774938.464 9      2035.162 9        55.669               
G16  22810081.247 8 119867804.631 8     -2244.411 8        53.041               
G10  25226061.738 8 132563859.015 8      1530.137 8        48.420               
G08  20294322.152 9 106647379.521 9      -217.120 9        57.599               
> 2022 06 08 00 02 39.0000000  0  7                                             
G01  23327320.202 8 122585897.334 8      3947.195 8        48.920               
G09  24898042.370 7 130840107.175 7     -2733.367 7        46.863               
G04  25527219.943 7 134146444.311 7     -2896.991 7        44.490               
G21  20889096.458 9 109772918.393 9      2010.532 9        55.190               
G16  22810511.301 8 119870057.974 8     -2256.763 8        53.879               
G10  25225772.000 8 132562331.627 8      1526.238 8        48.497               
G08  20294359.212 9 106647608.111 9      -235.373 9        56.526               
> 2022 06 08 00 02 40.0000000  0  7                                             
G01  23326570.587 8 122581954.252 8      3939.003 8        50.097               
G09  24898564.030 7 130842840.714 7     -2736.516 7        46.551               
G04  25527770.059 7 134149338.121 7     -2894.134 7        47.409               
G21  20888711.935 9 109770914.827 9      1997.206 9        54.984               
G16  22810941.167 9 119872320.704 9     -2265.360 9        54.121               
G10  25225482.638 7 132560805.922 7      1523.447 7        46.749               
G08  20294413.167 9 106647851.312 9      -245.654 9        58.512               
> 2022 06 08 00 02 41.0000000  0  7                                             
G01  23325823.608 8 122578024.393 8      3921.891 8        51.318               
G09  24899084.108 7 130845580.657 7     -2742.085 7        47.955               
G04  25528322.542 7 134152243.287 7     -2916.719 7        46.278               
G21  20888335.131 9 109768921.883 9      1989.238 9        55.523               
G16  22811373.195 8 119874586.715 8     -2266.819 8        51.955               
G10  25225192.857 7 132559279.251 7      1528.978 7        46.483               
G08  20294459.395 9 106648093.252 9      -236.206 9        58.110               
> 2022 06 08 00 02 42.0000000  0  7                                             
G01  23325076.174 8 122574097.994 8      3930.785 8        51.132               
G09  24899606.652 8 130848322.260 8     -2742.062 8        48.021               
G04  25528878.135 7 134155154.938 7     -2909.612 7        46.510               
G21  20887953.261 9 109766925.315 9      2006.824 9        54.989               
G16  22811804.143 8 119876847.898 8     -2254.624 8        51.680               
G10  25224901.868 7 132557750.593 7      1530.027 7        47.041               
G08  20294497.599 9 106648321.432 9      -219.301 9        58.084               
> 2022 06 08 00 02 43.0000000  0  7                                             
G01  23324324.969 8 122570152.611 8      3950.529 8        51.250               
G09  24900124.532 7 130851054.857 7     -2723.091 7        47.859               
G04  25529428.554 7 134158055.840 7     -2899.164 7        44.678               
G21  20887568.532 9 109764903.258 9      2028.696 9        55.625               
G16  22812231.632 8 119879094.720 8     -2247.354 8        52.465               
G10  25224610.746 7 132556220.513 7      1524.472 7        47.670               
G08  20294541.681 9 106648529.559 9      -199.084 9        59.495               
> 2022 06 08 00 02 44.0000000  0  7                                             
G01  23323575.301 8 122566212.449 8      3920.539 8        49.276               
G09  24900644.824 8 130853769.806 8     -2716.484 8        48.110               
G04  25529979.617 7 134160954.744 7     -2911.676 7        44.772               
G21  20887187.359 8 109762887.210 8      1997.709 8        51.990               
G16  22812663.759 8 119881363.220 8     -2284.238 8        52.276               
G10  25224322.966 8 132554714.595 8      1496.693 8        48.862               
G08  20294584.773 9 106648724.289 9      -192.313 9        56.685               
> 2022 06 08 00 02 45.0000000  0  7                                             
G01  23322834.085 8 122562315.675 8      3884.310 8        51.003               
G09  24901161.980 7 130856506.524 7     -2746.332 7        46.981               
G04  25530539.614 7 134163892.079 7     -2949.672 7        45.965               
G21  20886806.230 9 109760904.681 9      1974.329 9        55.268               
G16  22813097.136 9 119883641.334 9     -2275.964 9        54.765               
G10  25224035.918 8 132553203.740 8      1517.091 8        49.580               
G08  20294614.784 9 106648913.836 9      -190.581 9        58.282               
> 2022 06 08 00 02 46.0000000  0  7                                             
G01  23322094.433 8 122558434.747 8      3880.669 8        49.286               
G09  24901687.097 8 130859253.222 8     -2740.608 8        48.481               
G04  25531101.247 7 134166841.882 7     -2948.758 7        45.749               
G21  20886435.940 9 109758938.067 9      1963.230 9        56.645               
G16  22813530.040 8 119885924.073 8     -2292.826 8        51.412               
G10  25223747.217 7 132551689.944 7      1503.105 7        47.147               
G08  20294647.403 9 106649110.302 9      -200.547 9        58.085               
> 2022 06 08 00 02 47.0000000  0  7                                             
G01  23321355.826 8 122554549.576 8      3877.299 8        52.639               
G09  24902201.502 7 130861970.781 7     -2699.132 7        47.777               
G04  25531657.849 7 134169772.835 7     -2927.768 7        45.702               
G21  20886060.127 8 109756982.028 8      1938.880 8        53.963               
G16  22813971.262 8 119888242.900 8     -2346.073 8        53.141               
G10  25223464.306 8 132550212.996 8      1453.535 8        49.807               
G08  20294689.842 9 106649313.066 9      -206.440 9        57.955               
> 2022 06 08 00 02 48.0000000  0  7                                             
G01  23320622.463 8 122550699.206 8      3833.623 8        52.041               
G09  24902721.580 7 130864683.790 7     -2720.409 7        47.012               
G04  25532220.142 7 134172720.797 7     -2961.310 7        47.442               
G21  20885697.672 9 109755066.928 9      1899.628 9        54.261               
G16  22814419.766 8 119890602.202 8     -2363.720 8        50.889               
G10  25223187.890 8 132548762.417 8      1450.608 8        49.069               
G08  20294737.303 9 106649522.421 9      -211.978 9        57.202               
> 2022 06 08 00 02 49.0000000  0  7                                             
G01  23319890.342 8 122546858.911 8      3858.058 8        51.753               
G09  24903234.153 8 130867394.974 8     -2691.906 8        48.672               
G04  25532782.749 7 134175672.911 7     -2929.680 7        47.945               
G21  20885336.503 9 109753164.765 9      1916.876 9        55.676               
G16  22814871.423 8 119892974.489 8     -2378.690 8        51.948               
G10  25222915.342 8 132547320.557 8      1426.340 8        49.011               
G08  20294770.110 9 106649735.116 9      -210.673 9        58.396               
> 2022 06 08 00 02 50.0000000  0  7                                             
G01  23319151.959 8 122542974.302 8      3897.018 8        49.897               
G09  24903741.392 7 130870053.705 7     -2634.213 7        47.596               
G04  25533331.953 7 134178574.553 7     -2883.462 7        46.312               
G21  20884966.186 9 109751233.685 9      1934.178 9        55.271               
G16  22815327.467 8 119895369.456 8     -2414.160 8        52.691               
G10  25222650.532 8 132545921.539 8      1372.743 8        48.152               
G08  20294802.712 9 106649938.455 9      -195.954 9        57.598               
> 2022 06 08 00 02 51.0000000  0  7                                             
G01  23318413.646 8 122539093.461 8      3870.665 8        50.060               
G09  24904242.287 8 130872676.094 8     -2616.480 8        50.703               
G04  25533882.801 7 134181463.625 7     -2897.062 7        45.716               
G21  20884605.365 8 109749315.524 8      1903.371 8        53.440               
G16  22815792.151 8 119897809.655 8     -2456.834 8        51.529               
G10  25222393.495 7 132544570.533 7      1337.235 7        44.846               
G08  20294846.572 9 106650130.373 9      -192.181 9        57.034               
> 2022 06 08 00 02 52.0000000  0  7                                             
G01  23317677.460 8 122535223.084 8      3880.922 8        48.682               
G09  24904735.928 8 130875288.244 8     -2605.602 8        49.345               
G04  25534434.552 7 134184352.297 7     -2875.297 7        47.468               
G21  20884238.523 9 109747415.171 9      1907.226 9        55.577               
G16  22816262.366 8 119900274.963 8     -2466.952 8        52.139               
G10  25222137.325 7 132543239.767 7      1324.257 7        45.939               
G08  20294889.824 9 106650327.998 9      -201.129 9        56.630               
> 2022 06 08 00 02 53.0000000  0  7                                             
G01  23316936.155 8 122531320.755 8      3909.217 8        49.596               
G09  24905227.987 7 130877865.541 7     -2556.562 7        46.162               
G04  25534976.037 7 134187202.510 7     -2835.214 7        46.019               
G21  20883878.427 9 109745499.079 9      1913.451 9        56.270               
G16  22816734.849 8 119902758.117 8     -2501.929 8        52.938               
G10  25221892.055 8 132541937.979 8      1280.521 8        48.613               
G08  20294920.916 9 106650531.533 9      -207.165 9        57.195               
> 2022 06 08 00 02 54.0000000  0  7                                             
G01  23316189.614 8 122527407.327 8      3919.050 8        50.186               
G09  24905716.267 8 130880416.936 8     -2543.809 8        48.654               
G04  25535513.984 7 134190029.756 7     -2817.104 7        45.371               
G21  20883510.959 9 109743587.970 9      1909.730 9        56.433               
G16  22817211.702 9 119905269.254 9     -2520.084 9        54.575               
G10  25221649.644 7 132540665.886 7      1263.202 7        47.682               
G08  20294956.538 9 106650746.945 9      -224.639 9        55.837               
> 2022 06 08 00 02 55.0000000  0  7                                             
G01  23315444.029 8 122523477.650 8      3935.716 8        51.479               
G09  24906197.230 8 130882949.698 8     -2530.689 8        49.398               
G04  25536047.214 7 134192831.991 7     -2797.142 7        45.539               
G21  20883149.585 9 109741678.056 9      1913.278 9        57.033               
G16  22817691.932 9 119907798.015 9     -2526.645 9        54.163               
G10  25221409.287 7 132539412.485 7      1252.442 7        47.320               
G08  20295009.823 9 106650983.144 9      -237.944 9        58.298               
> 2022 06 08 00 02 56.0000000  0  7                                             
G01  23314692.655 8 122519539.711 8      3935.685 8        50.733               
G09  24906680.354 8 130885503.568 8     -2579.218 8        49.425               
G04  25536581.247 7 134195641.596 7     -2830.227 7        45.507               
G21  20882782.716 9 109739747.483 9      1943.988 9        56.990               
G16  22818166.265 8 119910288.660 8     -2455.501 8        53.070               
G10  25221167.225 7 132538126.130 7      1318.012 7        47.220               
G08  20295052.253 9 106651211.097 9      -217.610 9        58.691               
> 2022 06 08 00 02 57.0000000  0  7                                             
G01  23313948.320 8 122515623.608 8      3891.578 8        51.736               
G09  24907176.041 8 130888112.018 8     -2632.441 8        48.182               
G04  25537124.778 7 134198496.053 7     -2885.692 7        46.619               
G21  20882412.175 9 109737809.050 9      1923.183 9        54.135               
G16  22818629.627 8 119912721.892 8     -2423.269 8        52.709               
G10  25220909.196 8 132536778.381 8      1366.316 8        48.090               
G08  20295089.724 9 106651421.131 9      -205.173 9        57.000               
> 2022 06 08 00 02 58.0000000  0  7                                             
G01  23313214.877 8 122511765.537 8      3842.786 8        49.500               
G09  24907684.504 7 130890764.912 7     -2660.206 7        47.742               
G04  25537679.352 7 134201410.081 7     -2933.066 7        47.622               
G21  20882053.785 8 109735908.212 8      1891.287 8        53.597               
G16  22819091.916 8 119915147.664 8     -2424.611 8        52.066               
G10  25220645.878 7 132535403.659 7      1379.675 7        47.447               
G08  20295129.179 9 106651622.140 9      -198.773 9        55.621               
> 2022 06 08 00 02 59.0000000  0  7                                             
G01  23312484.079 8 122507925.693 8      3838.121 8        51.570               
G09  24908190.528 8 130893442.590 8     -2692.862 8        48.281               
G04  25538233.533 8 134204348.076 8     -2949.448 8        48.296               
G21  20881688.524 9 109734014.869 9      1897.151 9        54.321               
G16  22819550.587 8 119917557.085 8     -2393.453 8        51.919               
G10  25220382.265 7 132534006.530 7      1417.415 7        46.506               
G08  20295169.706 9 106651819.933 9      -195.742 9        57.913               
> 2022 06 08 00 03 00.0000000  0  7                                             
G01  23311752.280 8 122504085.981 8      3845.081 8        51.240               
G09  24908706.684 8 130896137.133 8     -2692.225 8        48.457               
G04  25538800.348 8 134207295.525 8     -2946.123 8        48.609               
G21  20881331.582 9 109732112.878 9      1910.654 9        55.484               
G16  22820004.943 8 119919943.056 8     -2378.291 8        52.687               
G10  25220113.033 7 132532587.130 7      1420.742 7        47.333               
G08  20295204.676 9 106652012.966 9      -188.575 9        58.873               
> 2022 06 08 00 03 01.0000000  0  7                                             
G01  23311016.487 8 122500214.424 8      3888.921 8        52.225               
G09  24909216.585 8 130898825.587 8     -2694.066 8        48.172               
G04  25539355.985 7 134210221.396 7     -2921.022 7        46.536               
G21  20880959.576 9 109730179.011 9      1954.770 9        54.856               
G16  22820454.733 8 119922305.959 8     -2339.581 8        53.152               
G10  25219840.459 7 132531157.877 7      1448.587 7        45.921               
G08  20295238.672 9 106652202.074 9      -188.045 9        57.942               
> 2022 06 08 00 03 02.0000000  0  7                                             
G01  23310276.165 8 122496330.897 8      3872.748 8        49.078               
G09  24909733.366 7 130901543.738 7     -2736.224 7        47.368               
G04  25539915.071 7 134213156.073 7     -2952.671 7        45.147               
G21  20880589.865 9 109728218.146 9      1961.893 9        54.363               
G16  22820894.168 9 119924617.100 9     -2290.937 9        54.367               
G10  25219558.110 7 132529682.740 7      1498.916 7        46.214               
G08  20295272.212 9 106652384.640 9      -179.050 9        57.817               
> 2022 06 08 00 03 03.0000000  0  7                                             
G01  23309537.674 8 122492451.550 8      3894.294 8        51.265               
G09  24910256.491 7 130904287.553 7     -2746.033 7        46.902               
G04  25540475.506 7 134216106.180 7     -2939.311 7        44.309               
G21  20880212.391 9 109726250.739 9      1981.377 9        54.171               
G16  22821327.653 8 119926898.444 8     -2267.441 8        53.850               
G10  25219270.901 7 132528176.544 7      1512.545 7        46.325               
G08  20295310.505 9 106652565.376 9      -183.310 9        57.702               
> 2022 06 08 00 03 04.0000000  0  7                                             
G01  23308795.529 8 122488548.954 8      3905.810 8        50.177               
G09  24910777.239 7 130907033.119 7     -2746.497 7        46.482               
G04  25541034.628 7 134219041.284 7     -2933.786 7        45.347               
G21  20879837.285 9 109724261.609 9      1990.739 9        55.409               
G16  22821756.652 8 119929158.297 8     -2256.931 8        51.912               
G10  25218981.781 7 132526656.344 7      1519.269 7        46.127               
G08  20295347.780 9 106652751.242 9      -188.991 9        57.339               
> 2022 06 08 00 03 05.0000000  0  7                                             
G01  23308050.596 8 122484638.165 8      3925.646 8        49.532               
G09  24911301.284 7 130909774.561 7     -2728.155 7        47.571               
G04  25541590.122 7 134221966.383 7     -2905.525 7        45.788               
G21  20879454.218 9 109722270.803 9      1997.502 9        55.501               
G16  22822187.037 9 119931419.989 9     -2268.749 9        54.304               
G10  25218692.999 7 132525138.778 7      1508.158 7        46.270               
G08  20295379.908 9 106652946.967 9      -201.121 9        58.354               
> 2022 06 08 00 03 06.0000000  0  7                                             
G01  23307299.588 8 122480691.726 8      3955.142 8        49.385               
G09  24911816.349 7 130912496.053 7     -2728.560 7        46.756               
G04  25542139.782 7 134224855.834 7     -2880.317 7        46.633               
G21  20879075.957 9 109720258.504 9      2019.271 9        56.221               
G16  22822617.073 8 119933680.191 8     -2250.701 8        53.592               
G10  25218406.112 7 132523629.925 7      1519.372 7        47.240               
G08  20295417.558 9 106653156.625 9      -218.309 9        57.543               
> 2022 06 08 00 03 07.0000000  0  7                                             
G01  23306547.471 8 122476737.762 8      3952.249 8        50.642               
G09  24912338.768 7 130915223.413 7     -2724.405 7        46.072               
G04  25542688.861 7 134227736.022 7     -2878.297 7        46.796               
G21  20878688.467 9 109718249.309 9      1998.792 9        55.691               
G16  22823048.592 9 119935936.755 9     -2264.203 9        55.247               
G10  25218118.582 7 132522113.437 7      1509.664 7        46.399               
G08  20295468.342 9 106653392.558 9      -250.335 9        57.045               
> 2022 06 08 00 03 08.0000000  0  7                                             
G01  23305795.909 8 122472789.927 8      3945.108 8        50.418               
G09  24912854.522 7 130917952.015 7     -2731.798 7        47.924               
G04  25543234.823 7 134230610.845 7     -2871.418 7        46.210               
G21  20878315.827 9 109716262.867 9      1978.073 9        56.843               
G16  22823481.737 9 119938211.410 9     -2281.120 9        55.149               
G10  25217831.793 7 132520603.988 7      1505.342 7        47.544               
G08  20295517.929 9 106653662.598 9      -282.614 9        58.442               
> 2022 06 08 00 03 09.0000000  0  7                                             
G01  23305046.375 8 122468848.297 8      3938.817 8        51.411               
G09  24913378.066 8 130920682.578 8     -2728.112 8        48.317               
G04  25543782.642 8 134233483.888 8     -2872.378 8        48.783               
G21  20877935.637 9 109714293.375 9      1966.119 9        56.297               
G16  22823915.105 8 119940498.509 8     -2290.374 8        53.452               
G10  25217545.826 8 132519098.997 8      1504.420 8        48.572               
G08  20295569.543 9 106653955.343 9      -297.792 9        59.248               
> 2022 06 08 00 03 10.0000000  0  7                                             
G01  23304296.805 8 122464905.710 8      3947.083 8        49.715               
G09  24913892.355 8 130923412.604 8     -2728.420 8        49.194               
G04  25544330.006 7 134236356.244 7     -2866.747 7        45.928               
G21  20877565.730 8 109712322.627 8      1977.499 8        53.708               
G16  22824352.378 8 119942784.703 8     -2282.601 8        52.952               
G10  25217259.019 7 132517594.237 7      1503.943 7        47.627               
G08  20295635.257 9 106654246.623 9      -284.028 9        57.599               
> 2022 06 08 00 03 11.0000000  0  7                                             
G01  23303543.698 8 122460948.959 8      3970.831 8        50.014               
G09  24914413.844 8 130926126.662 8     -2687.379 8        48.389               
G04  25544873.421 7 134239219.188 7     -2850.295 7        45.143               
G21  20877182.127 9 109710331.111 9      2006.212 9        56.196               
G16  22824785.550 8 119945067.452 8     -2295.655 8        53.307               
G10  25216975.170 7 132516098.976 7      1467.705 7        45.736               
G08  20295677.678 9 106654511.667 9      -242.735 9        59.273               
> 2022 06 08 00 03 12.0000000  0  7                                             
G01  23302784.854 8 122456961.733 8      4002.633 8        51.143               
G09  24914915.571 7 130928776.098 7     -2620.526 7        47.424               
G04  25545411.377 7 134242041.509 7     -2798.806 7        46.667               
G21  20876802.740 9 109708316.895 9      2023.837 9        56.432               
G16  22825227.210 8 119947390.304 8     -2340.952 8        51.704               
G10  25216701.997 7 132514666.208 7      1397.557 7        47.765               
G08  20295719.143 9 106654741.357 9      -220.275 9        58.569               
> 2022 06 08 00 03 13.0000000  0  7                                             
G01  23302018.157 8 122452928.930 8      4066.318 8        51.547               
G09  24915405.843 7 130931359.873 7     -2554.250 7        47.809               
G04  25545937.459 7 134244808.013 7     -2734.156 7        45.936               
G21  20876411.480 9 109706274.585 9      2065.633 9        55.835               
G16  22825675.409 8 119949748.791 8     -2366.263 8        53.715               
G10  25216439.233 7 132513291.849 7      1353.796 7        47.531               
G08  20295765.495 9 106654955.350 9      -209.406 9        59.005               
> 2022 06 08 00 03 14.0000000  0  7                                             
G01  23301238.897 8 122448825.304 8      4128.584 8        48.445               
G09  24915887.869 7 130933879.568 7     -2497.561 7        47.843               
G04  25546452.221 7 134247502.482 7     -2669.567 7        45.540               
G21  20876011.321 9 109704180.430 9      2113.682 9        54.573               
G16  22826126.513 9 119952119.863 9     -2372.948 9        54.100               
G10  25216186.663 7 132511960.774 7      1317.498 7        46.197               
G08  20295803.279 9 106655159.172 9      -198.250 9        57.534               
> 2022 06 08 00 03 15.0000000  0  7                                             
G01  23300453.259 8 122444695.594 8      4130.246 8        49.718               
G09  24916364.784 8 130936374.113 8     -2491.038 8        49.718               
G04  25546958.039 7 134250170.197 7     -2667.398 7        45.763               
G21  20875613.852 9 109702066.787 9      2112.253 9        55.922               
G16  22826579.189 8 119954496.523 8     -2379.015 8        53.362               
G10  25215938.007 8 132510647.508 8      1310.249 8        48.549               
G08  20295838.660 9 106655356.920 9      -196.888 9        58.633               
> 2022 06 08 00 03 16.0000000  0  7                                             
G01  23299664.225 8 122440567.287 8      4127.639 8        50.865               
G09  24916837.643 8 130938865.717 8     -2494.204 8        49.582               
G04  25547466.565 7 134252836.631 7     -2664.949 7        47.231               
G21  20875209.574 9 109699956.911 9      2106.493 9        55.186               
G16  22827032.740 8 119956878.916 8     -2384.806 8        52.452               
G10  25215686.268 8 132509339.419 8      1307.601 8        48.485               
G08  20295877.748 9 106655556.534 9      -203.429 9        56.621               
> 2022 06 08 00 03 17.0000000  0  7                                             
G01  23298880.419 8 122436440.719 8      4126.253 8        50.082               
G09  24917310.029 8 130941357.323 8     -2490.820 8        50.908               
G04  25547971.945 8 134255502.820 8     -2666.543 8        48.838               
G21  20874807.646 9 109697850.977 9      2108.341 9        56.223               
G16  22827487.078 8 119959264.403 8     -2384.526 8        53.206               
G10  25215440.319 7 132508033.149 7      1309.336 7        47.408               
G08  20295919.508 9 106655760.108 9      -200.106 9        57.389               
> 2022 06 08 00 03 18.0000000  0  7                                             
G01  23298094.316 8 122432309.504 8      4132.977 8        51.487               
G09  24917781.914 7 130943844.927 7     -2488.274 7        46.847               
G04  25548481.141 8 134258167.734 8     -2665.453 8        48.038               
G21  20874408.854 9 109695735.666 9      2118.897 9        57.347               
G16  22827940.174 8 119961645.241 8     -2378.590 8        53.600               
G10  25215190.582 7 132506727.943 7      1302.819 7        46.919               
G08  20295953.611 9 106655950.455 9      -185.809 9        59.821               
> 2022 06 08 00 03 19.0000000  0  7                                             
G01  23297306.747 8 122428174.552 8      4135.876 8        50.127               
G09  24918254.809 8 130946330.079 8     -2485.265 8        49.642               
G04  25548986.191 7 134260831.820 7     -2666.038 7        45.526               
G21  20874002.682 9 109693612.731 9      2124.265 9        57.893               
G16  22828392.654 9 119964021.484 9     -2376.321 9        54.369               
G10  25214941.425 7 132505422.682 7      1305.822 7        47.891               
G08  20295986.562 9 106656130.601 9      -177.932 9        59.008               
> 2022 06 08 00 03 20.0000000  0  7                                             
G01  23296520.939 8 122424040.494 8      4131.018 8        49.438               
G09  24918728.820 8 130948813.843 8     -2482.653 8        50.190               
G04  25549493.108 7 134263495.348 7     -2660.951 7        45.296               
G21  20873596.564 9 109691491.911 9      2118.030 9        57.265               
G16  22828845.517 9 119966400.574 9     -2383.059 9        54.794               
G10  25214695.797 8 132504120.150 8      1301.620 8        49.651               
G08  20296018.145 9 106656311.592 9      -184.146 9        60.334               
> 2022 06 08 00 03 21.0000000  0  7                                             
G01  23295733.478 8 122419909.312 8      4129.219 8        51.021               
G09  24919203.430 8 130951297.509 8     -2484.913 8        49.446               
G04  25550001.366 7 134266158.651 7     -2659.534 7        44.887               
G21  20873198.925 9 109689377.413 9      2109.291 9        55.472               
G16  22829299.408 9 119968784.930 9     -2387.580 9        54.409               
G10  25214447.802 7 132502820.553 7      1298.442 7        47.675               
G08  20296059.119 9 106656498.869 9      -193.653 9        58.499               
> 2022 06 08 00 03 22.0000000  0  7                                             
G01  23294949.814 8 122415781.743 8      4127.925 8        51.378               
G09  24919676.799 8 130953783.787 8     -2492.399 8        48.877               
G04  25550507.747 7 134268822.398 7     -2663.365 7        45.649               
G21  20872797.685 9 109687270.824 9      2104.877 9        57.492               
G16  22829753.925 8 119971173.340 8     -2386.755 8        53.319               
G10  25214198.744 7 132501521.314 7      1304.908 7        46.597               
G08  20296098.181 9 106656696.379 9      -200.795 9        57.751               
> 2022 06 08 00 03 23.0000000  0  7                                             
G01  23294164.310 8 122411654.890 8      4126.716 8        49.785               
G09  24920151.168 7 130956281.457 7     -2501.978 7        47.257               
G04  25551014.718 7 134271489.556 7     -2666.446 7        46.246               
G21  20872393.496 9 109685164.861 9      2107.801 9        56.551               
G16  22830205.823 8 119973551.157 8     -2372.751 8        53.183               
G10  25213952.312 7 132500209.176 7      1320.045 7        46.704               
G08  20296133.106 9 106656902.402 9      -207.216 9        57.274               
> 2022 06 08 00 03 24.0000000  0  7                                             
G01  23293376.456 8 122407524.598 8      4133.373 8        51.495               
G09  24920624.429 7 130958782.428 7     -2499.995 7        46.587               
G04  25551523.253 7 134274157.943 7     -2666.437 7        46.189               
G21  20871994.320 9 109683051.022 9      2118.851 9        58.386               
G16  22830656.980 8 119975918.712 8     -2368.818 8        53.236               
G10  25213699.394 7 132498890.179 7      1311.910 7        45.906               
G08  20296168.665 9 106657101.666 9      -191.071 9        58.377               
> 2022 06 08 00 03 25.0000000  0  7                                             
G01  23292590.380 8 122403389.824 8      4134.883 8        51.722               
G09  24921097.029 8 130961267.992 8     -2478.942 8        48.360               
G04  25552029.339 7 134276821.069 7     -2661.716 7        46.508               
G21  20871591.410 8 109680929.817 8      2120.547 8        53.889               
G16  22831109.022 8 119978294.197 8     -2381.786 8        53.122               
G10  25213449.388 7 132497586.392 7      1296.594 7        45.748               
G08  20296208.343 9 106657282.337 9      -178.421 9        55.510               
> 2022 06 08 00 03 26.0000000  0  7                                             
G01  23291804.831 8 122399257.875 8      4131.114 8        49.984               
G09  24921570.227 7 130963748.550 7     -2481.017 7        47.453               
G04  25552535.926 7 134279482.697 7     -2661.887 7        44.766               
G21  20871186.265 8 109678814.812 8      2111.224 8        53.612               
G16  22831563.440 8 119980679.526 8     -2388.186 8        53.353               
G10  25213206.441 7 132496291.301 7      1296.214 7        47.232               
G08  20296245.931 9 106657465.194 9      -186.722 9        55.648               
> 2022 06 08 00 03 27.0000000  0  7                                             
G01  23291018.156 8 122395130.802 8      4116.901 8        51.365               
G09  24922045.016 7 130966232.609 7     -2493.990 7        47.547               
G04  25553043.451 7 134282147.076 7     -2676.906 7        45.865               
G21  20870786.276 9 109676706.717 9      2098.432 9        56.686               
G16  22832017.617 8 119983067.301 8     -2383.774 8        51.500               
G10  25212958.473 8 132494995.534 8      1303.530 8        48.110               
G08  20296275.718 9 106657654.311 9      -192.322 9        56.951               
> 2022 06 08 00 03 28.0000000  0  7                                             
G01  23290246.446 8 122391053.572 8      4040.486 8        51.608               
G09  24922527.337 7 130968763.572 7     -2566.904 7        46.958               
G04  25553559.142 7 134284861.644 7     -2754.502 7        46.243               
G21  20870392.166 9 109674636.558 9      2038.788 9        56.240               
G16  22832470.231 8 119985445.319 8     -2374.515 8        50.797               
G10  25212704.500 7 132493667.988 7      1354.487 7        46.180               
G08  20296309.544 9 106657854.164 9      -209.919 9        58.813               
> 2022 06 08 00 03 29.0000000  0  7                                             
G01  23289478.972 8 122387044.443 8      3986.516 8        50.709               
G09  24923019.396 8 130971364.675 8     -2629.289 8        48.449               
G04  25554089.655 7 134287645.851 7     -2810.125 7        45.738               
G21  20870005.757 9 109672619.150 9      1999.225 9        55.800               
G16  22832918.511 8 119987805.100 8     -2347.225 8        53.533               
G10  25212444.756 7 132492290.027 7      1404.968 7        44.042               
G08  20296359.390 9 106658075.613 9      -233.883 9        57.555               
> 2022 06 08 00 03 30.0000000  0  7                                             
G01  23288723.755 8 122383077.504 8      3951.923 8        51.126               
G09  24923527.278 7 130974030.718 7     -2691.205 7        47.504               
G04  25554629.461 7 134290479.770 7     -2852.411 7        46.103               
G21  20869632.625 9 109670632.674 9      1974.433 9        56.105               
G16  22833361.734 9 119990131.505 9     -2314.325 9        54.139               
G10  25212171.637 7 132490854.932 7      1456.791 7        45.391               
G08  20296405.769 9 106658324.029 9      -259.567 9        58.481               
> 2022 06 08 00 03 31.0000000  0  7                                             
G01  23287974.150 8 122379135.744 8      3933.660 8        49.604               
G09  24924040.905 7 130976723.786 7     -2684.152 7        45.618               
G04  25555172.009 7 134293338.918 7     -2859.796 7        46.461               
G21  20869253.302 9 109668666.968 9      1957.804 9        55.050               
G16  22833803.152 9 119992451.002 9     -2330.911 9        54.329               
G10  25211894.274 7 132489400.400 7      1440.228 7        45.083               
G08  20296448.887 9 106658583.615 9      -253.608 9        57.215               
> 2022 06 08 00 03 32.0000000  0  7                                             
G01  23287230.021 8 122375222.676 8      3888.198 8        50.787               
G09  24924549.601 7 130979408.587 7     -2694.853 7        47.189               
G04  25555720.767 7 134296215.175 7     -2900.870 7        46.700               
G21  20868889.140 9 109666727.519 9      1917.703 9        55.546               
G16  22834250.405 9 119994802.155 9     -2362.498 9        54.405               
G10  25211620.279 7 132487970.766 7      1428.951 7        45.631               
G08  20296503.378 9 106658829.697 9      -244.074 9        57.211               
> 2022 06 08 00 03 33.0000000  0  7                                             
G01  23286498.731 8 122371373.951 8      3823.952 8        50.520               
G09  24925071.171 7 130982128.947 7     -2736.480 7        47.306               
G04  25556276.761 7 134299147.605 7     -2952.263 7        45.093               
G21  20868526.667 9 109664840.617 9      1868.808 9        55.889               
G16  22834700.562 8 119997167.746 8     -2366.016 8        51.842               
G10  25211345.820 7 132486530.712 7      1451.030 7        45.593               
G08  20296550.195 9 106659076.912 9      -248.100 9        57.682               
> 2022 06 08 00 03 34.0000000  0  7                                             
G01  23285771.391 8 122367550.551 8      3820.751 8        49.330               
G09  24925587.541 7 130984863.599 7     -2732.148 7        47.562               
G04  25556840.136 7 134302102.100 7     -2952.872 7        45.554               
G21  20868171.600 9 109662974.572 9      1859.274 9        54.702               
G16  22835151.781 8 119999538.759 8     -2378.365 8        53.149               
G10  25211071.790 7 132485086.398 7      1434.948 7        47.253               
G08  20296592.741 9 106659324.814 9      -251.174 9        55.831               
> 2022 06 08 00 03 35.0000000  0  7                                             
G01  23285045.426 8 122363735.245 8      3813.496 8        50.284               
G09  24926109.307 8 130987587.485 8     -2720.383 8        48.342               
G04  25557402.858 7 134305053.646 7     -2947.128 7        45.780               
G21  20867823.476 9 109661125.500 9      1844.982 9        54.569               
G16  22835607.763 8 120001934.536 8     -2402.925 8        53.108               
G10  25210803.352 8 132483662.060 8      1417.806 8        48.288               
G08  20296645.187 9 106659581.352 9      -256.970 9        57.186               
> 2022 06 08 00 03 36.0000000  0  7                                             
G01  23284319.443 8 122359919.975 8      3816.886 8        48.856               
G09  24926622.282 7 130990305.892 7     -2713.920 7        47.638               
G04  25557962.838 7 134308003.080 7     -2946.193 7        44.955               
G21  20867466.926 8 109659277.514 8      1852.334 8        53.695               
G16  22836065.112 8 120004336.255 8     -2400.036 8        53.271               
G10  25210533.083 8 132482244.777 8      1415.127 8        48.238               
G08  20296696.435 9 106659835.152 9      -248.186 9        56.853               
> 2022 06 08 00 03 37.0000000  0  7                                             
G01  23283596.159 8 122356096.860 8      3828.746 8        50.061               
G09  24927141.690 8 130993016.418 8     -2709.960 8        49.888               
G04  25558524.256 7 134310949.584 7     -2946.375 7        47.070               
G21  20867114.469 9 109657414.607 9      1868.861 9        54.296               
G16  22836520.825 8 120006732.379 8     -2392.566 8        51.309               
G10  25210262.359 7 132480830.757 7      1414.637 7        46.884               
G08  20296734.854 9 106660067.921 9      -224.455 9        58.745               
> 2022 06 08 00 03 38.0000000  0  7                                             
G01  23282857.293 8 122352249.177 8      3875.494 8        49.567               
G09  24927653.387 8 130995713.493 8     -2681.105 8        48.401               
G04  25559079.107 7 134313877.320 7     -2899.565 7        47.682               
G21  20866757.830 9 109655526.804 9      1913.410 9        55.275               
G16  22836974.922 8 120009118.595 8     -2377.555 8        51.095               
G10  25209992.930 8 132479419.486 8      1407.156 8        49.580               
G08  20296778.901 9 106660289.841 9      -222.629 9        56.807               
> 2022 06 08 00 03 39.0000000  0  7                                             
G01  23282112.449 8 122348336.368 8      3935.873 8        50.894               
G09  24928159.849 8 130998380.620 8     -2665.950 8        48.763               
G04  25559629.490 8 134316748.669 8     -2854.180 8        49.430               
G21  20866384.653 9 109653587.436 9      1958.011 9        56.182               
G16  22837424.944 8 120011485.196 8     -2350.713 8        53.453               
G10  25209725.904 8 132478012.529 8      1413.682 8        48.624               
G08  20296827.085 9 106660517.826 9      -235.583 9        57.773               
> 2022 06 08 00 03 40.0000000  0  7                                             
G01  23281363.281 8 122344391.181 8      3951.396 8        50.119               
G09  24928673.360 8 131001061.171 8     -2702.776 8        48.056               
G04  25560170.743 8 134319601.373 8     -2857.295 8        49.323               
G21  20866014.345 9 109651618.816 9      1978.117 9        56.268               
G16  22837867.605 9 120013811.798 9     -2298.090 9        54.809               
G10  25209454.312 7 132476573.192 7      1470.441 7        46.593               
G08  20296868.809 9 106660764.068 9      -255.569 9        58.615               
> 2022 06 08 00 03 41.0000000  0  7                                             
G01  23280610.728 8 122340437.092 8      3954.216 8        50.479               
G09  24929186.773 7 131003780.304 7     -2726.564 7        47.939               
G04  25560715.114 7 134322466.035 7     -2869.958 7        46.591               
G21  20865631.492 9 109649628.066 9      1998.208 9        57.159               
G16  22838299.392 9 120016082.184 9     -2258.465 9        54.181               
G10  25209170.374 8 132475079.633 8      1502.217 8        48.581               
G08  20296911.266 9 106661014.318 9      -241.225 9        58.375               
> 2022 06 08 00 03 42.0000000  0  7                                             
G01  23279858.147 8 122336482.828 8      3959.892 8        50.091               
G09  24929708.879 8 131006500.163 8     -2698.372 8        48.017               
G04  25561262.040 7 134325336.459 7     -2853.871 7        45.779               
G21  20865253.267 9 109647627.180 9      2004.728 9        57.901               
G16  22838729.919 8 120018343.302 8     -2275.987 8        53.622               
G10  25208884.559 7 132473582.470 7      1477.167 7        47.906               
G08  20296962.049 9 106661244.246 9      -221.788 9        57.366               
> 2022 06 08 00 03 43.0000000  0  7                                             
G01  23279099.741 8 122332501.375 8      4003.741 8        50.029               
G09  24930211.812 8 131009161.415 8     -2628.037 8        49.763               
G04  25561799.076 7 134328164.341 7     -2801.229 7        44.680               
G21  20864869.369 9 109645616.942 9      2020.787 9        55.210               
G16  22839167.987 8 120020650.240 8     -2327.537 8        53.231               
G10  25208609.849 7 132472145.476 7      1408.662 7        46.478               
G08  20297003.175 9 106661464.103 9      -219.528 9        57.852               
> 2022 06 08 00 03 44.0000000  0  7                                             
G01  23278331.292 8 122328465.242 8      4071.566 8        51.491               
G09  24930707.561 8 131011764.112 8     -2581.814 8        49.780               
G04  25562325.935 7 134330930.719 7     -2731.910 7        44.557               
G21  20864479.521 9 109643572.932 9      2073.821 9        56.547               
G16  22839610.969 8 120022980.418 8     -2325.197 8        53.555               
G10  25208343.797 7 132470754.539 7      1379.130 7        46.960               
G08  20297041.611 9 106661681.490 9      -215.678 9        56.909               
> 2022 06 08 00 03 45.0000000  0  7                                             
G01  23277550.452 8 122324361.958 8      4119.321 8        50.283               
G09  24931197.905 8 131014328.537 8     -2555.283 8        48.014               
G04  25562840.956 7 134333639.141 7     -2695.433 7        45.417               
G21  20864083.945 9 109641472.181 9      2115.452 9        56.174               
G16  22840050.824 8 120025294.376 8     -2307.623 8        53.555               
G10  25208082.561 8 132469375.765 8      1373.623 8        48.368               
G08  20297082.933 9 106661891.832 9      -204.636 9        59.495               
> 2022 06 08 00 03 46.0000000  0  7                                             
G01  23276764.787 8 122320240.770 8      4126.712 8        50.013               
G09  24931681.878 7 131016879.286 7     -2544.987 7        47.761               
G04  25563354.529 7 134336332.619 7     -2688.514 7        47.057               
G21  20863677.041 9 109639353.799 9      2123.194 9        58.205               
G16  22840490.375 8 120027605.083 8     -2314.303 8        51.894               
G10  25207822.898 7 132468003.820 7      1362.225 7        47.233               
G08  20297126.918 9 106662092.002 9      -193.180 9        58.409               
> 2022 06 08 00 03 47.0000000  0  7                                             
G01  23275982.418 8 122316112.854 8      4127.229 8        50.402               
G09  24932162.886 8 131019416.819 8     -2536.185 8        49.017               
G04  25563864.931 7 134339017.207 7     -2684.522 7        47.953               
G21  20863273.103 9 109637230.793 9      2117.346 9        55.563               
G16  22840931.588 8 120029923.759 8     -2322.180 8        52.047               
G10  25207562.796 7 132466644.733 7      1356.253 7        46.172               
G08  20297160.065 9 106662285.625 9      -200.000 9        57.112               
> 2022 06 08 00 03 48.0000000  0  7                                             
G01  23275195.833 8 122311991.246 8      4116.761 8        50.448               
G09  24932646.216 8 131021959.665 8     -2553.795 8        48.749               
G04  25564376.325 7 134341704.274 7     -2689.071 7        47.182               
G21  20862874.641 8 109635118.923 8      2105.558 8        53.492               
G16  22841373.114 8 120032246.711 8     -2319.293 8        52.340               
G10  25207302.730 7 132465284.405 7      1370.730 7        46.550               
G08  20297194.776 9 106662492.594 9      -214.636 9        55.563               
> 2022 06 08 00 03 49.0000000  0  7                                             
G01  23274415.216 8 122307878.863 8      4108.988 8        50.843               
G09  24933136.301 7 131024516.733 7     -2561.544 7        47.703               
G04  25564889.255 8 134344400.343 8     -2698.711 8        48.021               
G21  20862471.561 8 109633016.915 8      2097.090 8        53.897               
G16  22841815.042 8 120034564.603 8     -2318.724 8        53.092               
G10  25207044.621 7 132463912.623 7      1370.485 7        46.529               
G08  20297239.895 9 106662711.453 9      -223.238 9        56.975               
> 2022 06 08 00 03 50.0000000  0  7                                             
G01  23273635.161 8 122303797.249 8      4049.105 8        51.178               
G09  24933626.752 8 131027092.390 8     -2592.568 8        49.528               
G04  25565406.644 8 134347122.626 8     -2751.354 8        48.793               
G21  20862077.370 8 109630941.767 8      2048.004 8        53.618               
G16  22842257.407 8 120036889.194 8     -2330.026 8        50.427               
G10  25206782.688 7 132462534.590 7      1380.016 7        45.756               
G08  20297289.017 9 106662935.447 9      -221.555 9        56.947               
> 2022 06 08 00 03 51.0000000  0  7                                             
G01  23272873.780 8 122299777.753 8      3998.269 8        50.513               
G09  24934121.742 7 131029712.842 7     -2645.794 7        47.347               
G04  25565936.889 7 134349906.789 7     -2812.982 7        47.206               
G21  20861692.114 9 109628908.822 9      2023.608 9        55.987               
G16  22842699.558 8 120039210.911 8     -2306.737 8        53.204               
G10  25206513.625 7 132461131.642 7      1427.066 7        45.489               
G08  20297322.191 9 106663151.478 9      -209.645 9        57.973               
> 2022 06 08 00 03 52.0000000  0  7                                             
G01  23272114.856 8 122295792.273 8      3976.668 8        50.413               
G09  24934629.570 8 131032368.357 8     -2662.089 8        49.122               
G04  25566473.844 7 134352730.807 7     -2831.876 7        45.178               
G21  20861304.213 9 109626893.335 9      2009.192 9        56.807               
G16  22843139.092 8 120041516.222 8     -2307.161 8        52.262               
G10  25206240.640 7 132459701.027 7      1438.167 7        45.990               
G08  20297357.062 9 106663359.807 9      -207.551 9        57.786               
> 2022 06 08 00 03 53.0000000  0  7                                             
G01  23271361.802 8 122291826.974 8      3953.416 8        50.201               
G09  24935137.068 8 131035031.630 8     -2659.153 8        48.966               
G04  25567016.401 7 134355570.488 7     -2845.256 7        44.384               
G21  20860929.205 9 109624896.083 9      1979.440 9        54.808               
G16  22843580.269 8 120043830.667 8     -2333.733 8        53.787               
G10  25205969.219 7 132458271.851 7      1413.905 7        47.708               
G08  20297405.139 9 106663569.022 9      -212.063 9        57.488               
> 2022 06 08 00 03 54.0000000  0  7                                             
G01  23270611.946 8 122287901.222 8      3899.269 8        49.990               
G09  24935640.180 7 131037690.222 7     -2665.984 7        46.895               
G04  25567559.164 7 134358430.967 7     -2883.871 7        46.471               
G21  20860552.392 9 109622942.956 9      1926.622 9        54.207               
G16  22844028.853 8 120046189.222 8     -2373.858 8        51.805               
G10  25205704.704 7 132456871.267 7      1395.098 7        47.926               
G08  20297446.756 9 106663781.543 9      -211.737 9        56.110               
> 2022 06 08 00 03 55.0000000  0  7                                             
G01  23269880.013 8 122284043.234 8      3830.353 8        49.649               
G09  24936154.879 8 131040375.910 8     -2699.057 8        48.611               
G04  25568114.078 7 134361345.374 7     -2934.376 7        47.194               
G21  20860196.575 9 109621049.587 9      1862.897 9        56.113               
G16  22844483.164 8 120048576.923 8     -2401.183 8        53.128               
G10  25205438.589 7 132455473.285 7      1397.233 7        47.712               
G08  20297482.887 9 106663995.978 9      -224.918 9        58.452               
> 2022 06 08 00 03 56.0000000  0  7                                             
G01  23269152.413 8 122280220.397 8      3820.541 8        50.870               
G09  24936664.477 7 131043074.081 7     -2690.314 7        47.714               
G04  25568672.547 8 134364281.705 8     -2931.302 8        48.049               
G21  20859841.946 9 109619196.843 9      1845.138 9        55.244               
G16  22844941.602 8 120050988.971 8     -2422.782 8        51.283               
G10  25205171.331 7 132454081.389 7      1382.380 7        47.527               
G08  20297527.908 9 106664229.635 9      -240.954 9        58.951               
> 2022 06 08 00 03 57.0000000  0  7                                             
G01  23268426.064 8 122276401.529 8      3816.841 8        50.071               
G09  24937178.979 7 131045763.959 7     -2692.281 7        47.806               
G04  25569230.713 8 134367212.529 8     -2930.093 8        48.927               
G21  20859490.141 9 109617357.981 9      1832.730 9        56.163               
G16  22845403.543 8 120053420.468 8     -2438.027 8        51.261               
G10  25204909.389 7 132452704.564 7      1374.849 7        47.996               
G08  20297581.899 9 106664476.280 9      -253.122 9        58.038               
> 2022 06 08 00 03 58.0000000  0  7                                             
G01  23267699.018 8 122272586.910 8      3811.123 8        50.246               
G09  24937691.472 8 131048457.720 8     -2698.953 8        49.769               
G04  25569788.200 7 134370144.860 7     -2931.857 7        46.792               
G21  20859146.261 9 109615526.899 9      1832.879 9        56.730               
G16  22845866.226 8 120055854.764 8     -2427.010 8        52.909               
G10  25204649.573 7 132451326.679 7      1386.932 7        47.041               
G08  20297622.917 9 106664732.639 9      -256.054 9        58.613               
> 2022 06 08 00 03 59.0000000  0  7                                             
G01  23266972.553 8 122268770.761 8      3822.818 8        50.818               
G09  24938203.705 8 131051159.837 8     -2701.787 8        49.020               
G04  25570347.500 7 134373082.002 7     -2936.819 7        47.125               
G21  20858793.660 9 109613687.914 9      1850.854 9        56.470               
G16  22846326.496 8 120058274.262 8     -2411.060 8        52.398               
G10  25204385.049 8 132449936.447 8      1394.029 8        48.853               
G08  20297668.090 9 106664982.270 9      -236.186 9        57.010               
> 2022 06 08 00 04 00.0000000  0  7                                             
G01  23266244.390 8 122264944.688 8      3830.555 8        49.918               
G09  24938720.352 8 131053857.096 8     -2691.197 8        49.447               
G04  25570905.085 7 134376017.516 7     -2930.402 7        46.024               
G21  20858438.147 9 109611828.893 9      1864.780 9        55.902               
G16  22846784.640 8 120060681.028 8     -2408.507 8        51.175               
G10  25204118.256 8 132448543.943 8      1386.788 8        48.145               
G08  20297716.908 9 106665207.169 9      -215.851 9        57.965               
> 2022 06 08 00 04 01.0000000  0  7                                             
G01  23265516.451 8 122261111.126 8      3835.451 8        51.283               
G09  24939227.225 8 131056542.373 8     -2684.747 8        48.424               
G04  25571462.884 7 134378946.932 7     -2930.681 7        45.904               
G21  20858086.753 9 109609959.485 9      1870.592 9        57.242               
G16  22847242.230 8 120063089.999 8     -2410.718 8        52.045               
G10  25203854.688 8 132447161.024 8      1380.862 8        48.602               
G08  20297755.631 9 106665416.254 9      -207.671 9        57.704               
> 2022 06 08 00 04 02.0000000  0  7                                             
G01  23264787.073 8 122257277.640 8      3832.141 8        50.535               
G09  24939741.898 7 131059227.035 7     -2690.441 7        45.783               
G04  25572020.621 7 134381875.745 7     -2931.813 7        47.758               
G21  20857726.772 9 109608090.796 9      1865.855 9        55.384               
G16  22847702.116 8 120065499.978 8     -2409.093 8        52.320               
G10  25203592.987 7 132445779.291 7      1388.941 7        47.692               
G08  20297791.646 9 106665625.724 9      -213.453 9        56.163               
> 2022 06 08 00 04 03.0000000  0  7                                             
G01  23264059.027 8 122253450.560 8      3825.581 8        51.018               
G09  24940252.719 7 131061923.330 7     -2698.190 7        46.313               
G04  25572578.769 7 134384810.227 7     -2934.896 7        46.663               
G21  20857374.350 9 109606230.663 9      1852.964 9        54.813               
G16  22848160.546 8 120067906.142 8     -2406.281 8        52.549               
G10  25203329.339 7 132444388.073 7      1393.534 7        46.660               
G08  20297835.961 9 106665848.209 9      -232.301 9        56.295               
> 2022 06 08 00 04 04.0000000  0  7                                             
G01  23263331.731 8 122249631.740 8      3817.830 8        50.356               
G09  24940766.954 7 131064623.805 7     -2695.270 7        46.341               
G04  25573138.579 7 134387745.752 7     -2931.136 7        47.087               
G21  20857026.691 9 109604387.542 9      1839.700 9        54.878               
G16  22848620.673 8 120070322.691 8     -2423.620 8        52.156               
G10  25203063.617 7 132442999.110 7      1382.456 7        47.510               
G08  20297889.407 9 106666091.166 9      -244.279 9        57.419               
> 2022 06 08 00 04 05.0000000  0  7                                             
G01  23262604.515 8 122245810.077 8      3823.772 8        50.524               
G09  24941279.482 7 131067309.143 7     -2681.234 7        47.450               
G04  25573694.064 7 134390672.423 7     -2924.811 7        46.999               
G21  20856671.883 9 109602546.925 9      1842.180 9        57.073               
G16  22849084.410 8 120072755.369 8     -2435.864 8        53.348               
G10  25202801.550 8 132441628.339 8      1366.396 8        48.247               
G08  20297927.084 9 106666332.536 9      -238.827 9        59.890               
> 2022 06 08 00 04 06.0000000  0  7                                             
G01  23261873.449 8 122241986.098 8      3822.978 8        51.040               
G09  24941786.614 8 131069991.430 8     -2684.883 8        49.644               
G04  25574250.979 7 134393597.306 7     -2926.574 7        47.113               
G21  20856323.303 9 109600703.105 9      1844.582 9        56.294               
G16  22849547.155 8 120075187.985 8     -2428.000 8        52.570               
G10  25202542.128 8 132440259.916 8      1373.244 8        48.872               
G08  20297971.783 9 106666569.248 9      -237.093 9        58.977               
> 2022 06 08 00 04 07.0000000  0  7                                             
G01  23261148.422 8 122238166.327 8      3819.133 8        49.538               
G09  24942304.164 8 131072692.522 8     -2710.855 8        50.768               
G04  25574809.431 7 134396532.493 7     -2940.741 7        46.770               
G21  20855974.286 9 109598858.462 9      1846.347 9        54.469               
G16  22850006.765 8 120077602.049 8     -2406.571 8        53.071               
G10  25202279.274 7 132438870.246 7      1399.041 7        47.061               
G08  20298023.755 9 106666810.129 9      -242.432 9        57.879               
> 2022 06 08 00 04 08.0000000  0  7                                             
G01  23260423.896 8 122234346.336 8      3822.544 8        52.122               
G09  24942816.147 8 131075400.374 8     -2701.722 8        49.692               
G04  25575370.107 7 134399471.029 7     -2934.091 7        46.347               
G21  20855618.165 9 109597010.402 9      1849.927 9        55.112               
G16  22850464.167 8 120080006.614 8     -2406.207 8        52.763               
G10  25202012.356 7 132437471.738 7      1393.970 7        47.086               
G08  20298065.077 9 106667049.440 9      -235.494 9        58.169               
> 2022 06 08 00 04 09.0000000  0  7                                             
G01  23259693.553 8 122230511.056 8      3862.021 8        50.192               
G09  24943330.239 8 131078087.638 8     -2671.418 8        49.147               
G04  25575925.083 7 134402393.090 7     -2900.218 7        47.814               
G21  20855266.878 9 109595149.794 9      1883.238 9        56.841               
G16  22850922.972 8 120082419.102 8     -2408.883 8        52.482               
G10  25201747.805 8 132436090.416 8      1374.592 8        48.600               
G08  20298102.299 9 106667277.948 9      -224.821 9        57.602               
> 2022 06 08 00 04 10.0000000  0  7                                             
G01  23258951.167 8 122226611.629 8      3929.252 8        50.231               
G09  24943836.066 8 131080744.784 8     -2647.631 8        48.150               
G04  25576470.687 7 134405262.166 7     -2844.650 7        47.682               
G21  20854902.466 9 109593233.814 9      1942.889 9        55.347               
G16  22851377.515 8 120084808.672 8     -2373.226 8        53.790               
G10  25201486.113 8 132434712.736 8      1383.462 8        49.039               
G08  20298153.726 9 106667502.484 9      -224.770 9        58.017               
> 2022 06 08 00 04 11.0000000  0  7                                             
G01  23258200.659 8 122222660.958 8      3966.077 8        50.459               
G09  24944338.999 7 131083398.583 7     -2663.450 7        47.910               
G04  25577011.431 7 134408098.266 7     -2832.669 7        45.439               
G21  20854526.180 8 109591266.597 8      1989.221 8        53.859               
G16  22851823.919 8 120087154.192 8     -2315.924 8        53.490               
G10  25201221.419 7 132433311.414 7      1424.592 7        46.859               
G08  20298197.022 9 106667726.100 9      -220.737 9        59.120               
> 2022 06 08 00 04 12.0000000  0  7                                             
G01  23257442.503 8 122218681.868 8      3989.410 8        50.918               
G09  24944852.956 7 131086084.496 7     -2703.174 7        47.306               
G04  25577549.333 7 134410935.244 7     -2840.240 7        46.668               
G21  20854143.434 9 109589252.971 9      2034.764 9        55.543               
G16  22852257.904 8 120089427.860 8     -2242.324 8        52.745               
G10  25200942.939 8 132431851.611 8      1484.684 8        48.867               
G08  20298233.573 9 106667939.422 9      -205.888 9        58.724               
> 2022 06 08 00 04 13.0000000  0  7                                             
G01  23256679.933 8 122214686.990 8      3998.792 8        51.487               
G09  24945363.046 7 131088786.872 7     -2699.498 7        46.531               
G04  25578090.425 7 134413774.075 7     -2836.417 7        46.270               
G21  20853757.428 9 109587210.559 9      2046.609 9        54.225               
G16  22852682.213 8 120091660.440 8     -2230.176 8        53.297               
G10  25200658.965 8 132430360.212 8      1493.541 8        48.752               
G08  20298269.901 9 106668139.521 9      -197.700 9        56.017               
> 2022 06 08 00 04 14.0000000  0  7                                             
G01  23255918.088 8 122210678.205 8      4026.239 8        50.450               
G09  24945876.610 7 131091470.705 7     -2662.695 7        45.273               
G04  25578625.700 7 134416595.174 7     -2795.233 7        46.307               
G21  20853363.059 8 109585161.527 8      2055.127 8        51.672               
G16  22853107.353 8 120093903.768 8     -2259.176 8        53.385               
G10  25200377.304 7 132428885.608 7      1451.734 7        47.732               
G08  20298312.519 9 106668339.702 9      -207.780 9        55.511               
> 2022 06 08 00 04 15.0000000  0  7                                             
G01  23255148.138 8 122206630.093 8      4059.651 8        50.934               
G09  24946380.704 7 131094119.992 7     -2644.002 7        44.584               
G04  25579154.820 7 134419372.577 7     -2763.580 7        45.997               
G21  20852973.639 8 109583090.672 8      2078.417 8        53.839               
G16  22853537.156 8 120096158.122 8     -2253.004 8        51.359               
G10  25200100.898 7 132427435.868 7      1446.633 7        46.733               
G08  20298350.910 9 106668549.155 9      -210.739 9        55.918               
> 2022 06 08 00 04 16.0000000  0  7                                             
G01  23254376.125 8 122202559.015 8      4078.861 8        50.128               
G09  24946877.320 7 131096745.607 7     -2611.679 7        44.932               
G04  25579679.588 8 134422122.124 8     -2734.939 8        48.308               
G21  20852574.650 9 109581009.468 9      2081.215 9        55.699               
G16  22853966.674 8 120098424.080 8     -2278.846 8        52.431               
G10  25199828.708 7 132426005.582 7      1411.471 7        47.021               
G08  20298389.633 9 106668765.938 9      -222.918 9        57.617               
> 2022 06 08 00 04 17.0000000  0  7                                             
G01  23253599.108 8 122198486.000 8      4071.431 8        50.835               
G09  24947374.821 7 131099341.438 7     -2577.981 7        45.413               
G04  25580198.666 7 134424852.673 7     -2720.799 7        46.654               
G21  20852180.701 9 109578943.644 9      2053.548 9        56.390               
G16  22854405.966 8 120100730.656 8     -2334.934 8        52.056               
G10  25199566.828 8 132424614.783 8      1361.562 8        49.248               
G08  20298434.734 9 106668993.830 9      -234.597 9        56.124               
> 2022 06 08 00 04 18.0000000  0  7                                             
G01  23252819.974 8 122194394.099 8      4110.966 8        51.079               
G09  24947861.001 7 131101892.116 7     -2535.767 7        45.060               
G04  25580710.202 7 134427545.783 7     -2672.151 7        47.517               
G21  20851792.496 9 109576882.958 9      2071.106 9        57.275               
G16  22854853.460 8 120103082.481 8     -2357.948 8        52.079               
G10  25199311.748 8 132423274.403 8      1327.959 8        48.155               
G08  20298487.796 9 106669234.978 9      -243.004 9        58.136               
> 2022 06 08 00 04 19.0000000  0  7                                             
G01  23252038.767 8 122190281.186 8      4110.478 8        50.488               
G09  24948341.043 7 131104422.517 7     -2527.815 7        45.262               
G04  25581221.640 7 134430216.580 7     -2669.430 7        46.606               
G21  20851392.927 9 109574808.038 9      2075.623 9        55.700               
G16  22855302.473 8 120105439.725 8     -2357.969 8        53.505               
G10  25199056.525 8 132421948.845 8      1321.021 8        50.332               
G08  20298524.865 9 106669474.102 9      -237.020 9        58.775               
> 2022 06 08 00 04 20.0000000  0  7                                             
G01  23251253.245 8 122186167.568 8      4114.060 8        49.375               
G09  24948818.030 7 131106942.274 7     -2510.057 7        43.449               
G04  25581726.163 8 134432881.151 8     -2659.836 8        48.361               
G21  20851001.756 9 109572737.580 9      2064.648 9        54.754               
G16  22855753.264 8 120107810.453 8     -2381.211 8        51.845               
G10  25198809.959 8 132420637.252 8      1300.253 8        48.981               
G08  20298569.252 9 106669714.772 9      -245.056 9        57.795               
> 2022 06 08 00 04 21.0000000  0  7                                             
G01  23250472.914 8 122182061.241 8      4087.823 8        49.654               
G09  24949296.580 7 131109454.588 7     -2516.263 7        44.183               
G04  25582234.698 8 134435545.808 8     -2678.956 8        48.045               
G21  20850611.300 9 109570678.692 9      2043.416 9        56.324               
G16  22856207.298 9 120110198.210 9     -2393.410 9        54.827               
G10  25198561.660 8 132419339.907 8      1295.710 8        48.255               
G08  20298622.251 9 106669957.432 9      -240.253 9        59.307               
> 2022 06 08 00 04 22.0000000  0  7                                             
G01  23249701.865 8 122178006.913 8      4031.804 8        49.595               
G09  24949781.590 7 131111987.013 7     -2533.080 7        44.611               
G04  25582746.529 7 134438252.506 7     -2718.410 7        46.889               
G21  20850223.945 9 109568664.175 9      1989.321 9        56.422               
G16  22856666.076 9 120112608.015 9     -2431.667 9        55.920               
G10  25198314.799 8 132418045.018 8      1278.309 8        48.051               
G08  20298664.440 9 106670197.882 9      -242.267 9        61.069               
> 2022 06 08 00 04 23.0000000  0  7                                             
G01  23248935.150 8 122173976.483 8      4035.944 8        51.500               
G09  24950258.041 7 131114495.020 7     -2483.131 7        44.812               
G04  25583263.811 7 134440960.233 7     -2686.624 7        47.391               
G21  20849851.974 9 109566686.594 9      1969.988 9        57.655               
G16  22857135.727 9 120115073.629 9     -2497.556 9        55.772               
G10  25198079.661 8 132416796.035 8      1216.154 8        48.258               
G08  20298704.726 9 106670443.956 9      -251.402 9        60.364               
> 2022 06 08 00 04 24.0000000  0  7                                             
G01  23248167.703 8 122169941.500 8      4031.625 8        51.693               
G09  24950727.755 7 131116967.087 7     -2471.776 7        45.300               
G04  25583775.267 7 134443643.562 7     -2683.473 7        47.619               
G21  20849474.196 9 109564725.505 9      1957.230 9        56.466               
G16  22857615.270 8 120117586.395 8     -2516.706 8        53.315               
G10  25197847.060 7 132415593.488 7      1200.544 7        45.937               
G08  20298762.523 9 106670704.009 9      -264.754 9        59.040               
> 2022 06 08 00 04 25.0000000  0  7                                             
G01  23247399.031 8 122165905.481 8      4036.965 8        50.859               
G09  24951196.754 7 131119438.591 7     -2476.367 7        45.062               
G04  25584284.677 7 134446325.385 7     -2687.429 7        47.962               
G21  20849105.862 9 109562764.516 9      1966.431 9        55.282               
G16  22858093.704 8 120120099.358 8     -2503.961 8        52.659               
G10  25197621.419 7 132414391.573 7      1207.350 7        46.649               
G08  20298811.261 9 106670965.516 9      -256.699 9        59.844               
> 2022 06 08 00 04 26.0000000  0  7                                             
G01  23246632.137 8 122161876.641 8      4023.746 8        51.642               
G09  24951673.375 7 131121946.766 7     -2531.840 7        45.789               
G04  25584798.179 8 134449032.193 8     -2727.251 8        49.452               
G21  20848724.671 9 109560791.525 9      1979.699 9        54.022               
G16  22858563.105 8 120122567.814 8     -2436.676 8        52.881               
G10  25197381.697 7 132413144.777 7      1282.614 7        45.587               
G08  20298851.725 9 106671216.390 9      -247.186 9        57.619               
> 2022 06 08 00 04 27.0000000  0  7                                             
G01  23245864.144 8 122157841.763 8      4054.056 8        51.646               
G09  24952160.744 7 131124498.034 7     -2553.365 7        45.235               
G04  25585318.480 7 134451757.629 7     -2716.436 7        47.554               
G21  20848350.351 9 109558792.802 9      2020.839 9        56.021               
G16  22859020.820 8 120124972.917 8     -2382.867 8        50.783               
G10  25197133.478 7 132411838.158 7      1323.831 7        45.669               
G08  20298906.753 9 106671461.319 9      -244.713 9        57.860               
> 2022 06 08 00 04 28.0000000  0  7                                             
G01  23245088.298 8 122153767.908 8      4078.600 8        50.604               
G09  24952647.942 7 131127050.757 7     -2558.381 7        44.926               
G04  25585832.947 7 134454459.793 7     -2703.894 7        45.334               
G21  20847957.214 9 109556753.761 9      2045.414 9        57.229               
G16  22859470.941 8 120127339.241 8     -2358.890 8        53.422               
G10  25196882.284 7 132410508.452 7      1334.870 7        45.801               
G08  20298952.078 9 106671705.834 9      -243.676 9        57.213               
> 2022 06 08 00 04 29.0000000  0  7                                             
G01  23244313.238 8 122149690.536 8      4072.081 8        50.674               
G09  24953134.239 7 131129613.852 7     -2574.592 7        43.112               
G04  25586347.557 7 134457165.860 7     -2716.308 7        46.084               
G21  20847571.637 9 109554705.180 9      2053.109 9        55.465               
G16  22859917.845 8 120129687.156 8     -2333.780 8        51.714               
G10  25196623.746 7 132409163.030 7      1362.273 7        44.219               
G08  20298993.463 9 106671945.997 9      -233.832 9        57.868               
> 2022 06 08 00 04 30.0000000  0  7                                             
G01  23243541.127 8 122145616.764 8      4080.426 8        51.832               
G09  24953627.040 7 131132212.981 7     -2610.500 7        44.667               
G04  25586867.725 8 134459896.476 8     -2734.168 8        50.082               
G21  20847175.248 9 109552637.757 9      2084.386 9        55.183               
G16  22860355.716 8 120131985.333 8     -2274.004 8        52.156               
G10  25196359.008 7 132407770.668 7      1413.074 7        47.800               
G08  20299039.752 9 106672168.352 9      -214.131 9        57.664               
> 2022 06 08 00 04 31.0000000  0  7                                             
G01  23242759.714 8 122141533.745 8      4084.761 8        50.359               
G09  24954127.471 7 131134824.530 7     -2610.985 7        46.479               
G04  25587387.427 8 134462630.308 8     -2734.064 8        48.692               
G21  20846776.849 8 109550551.032 8      2090.299 8        52.885               
G16  22860787.387 8 120134254.644 8     -2267.075 8        52.365               
G10  25196090.705 8 132406355.929 8      1416.968 8        49.041               
G08  20299086.417 9 106672379.944 9      -207.640 9        56.641               
> 2022 06 08 00 04 32.0000000  0  7                                             
G01  23241980.875 8 122137439.110 8      4097.455 8        51.751               
G09  24954621.129 7 131137426.047 7     -2597.981 7        46.066               
G04  25587906.263 7 134465356.475 7     -2723.173 7        46.710               
G21  20846381.658 9 109548449.033 9      2107.009 9        56.886               
G16  22861218.183 8 120136519.862 8     -2264.393 8        51.910               
G10  25195824.715 8 132404946.037 8      1411.396 8        48.545               
G08  20299116.741 9 106672575.887 9      -188.976 9        57.185               
> 2022 06 08 00 04 33.0000000  0  7                                             
G01  23241200.303 8 122133341.555 8      4094.309 8        52.236               
G09  24955113.805 7 131140023.058 7     -2599.006 7        46.717               
G04  25588424.938 7 134468078.369 7     -2724.399 7        47.916               
G21  20845979.444 9 109546346.284 9      2092.389 9        56.325               
G16  22861648.594 8 120138788.206 8     -2274.780 8        50.176               
G10  25195555.054 8 132403540.775 8      1401.931 8        48.409               
G08  20299148.021 9 106672772.222 9      -208.714 9        57.035               
> 2022 06 08 00 04 34.0000000  0  7                                             
G01  23240425.600 8 122129262.877 8      4068.184 8        51.040               
G09  24955611.708 7 131142629.866 7     -2610.438 7        47.449               
G04  25588942.997 8 134470804.514 8     -2727.539 8        48.985               
G21  20845583.726 9 109544279.117 9      2049.408 9        55.450               
G16  22862084.473 8 120141077.186 8     -2298.814 8        52.809               
G10  25195286.322 7 132402138.970 7      1399.988 7        46.693               
G08  20299201.592 9 106673009.624 9      -258.852 9        56.525               
> 2022 06 08 00 04 35.0000000  0  7                                             
G01  23239651.550 8 122125206.684 8      4038.137 8        49.628               
G09  24956110.557 8 131145247.504 8     -2625.867 8        50.628               
G04  25589464.031 7 134473536.410 7     -2739.624 7        47.710               
G21  20845202.481 9 109542252.841 9      1999.707 9        54.925               
G16  22862523.041 9 120143390.471 9     -2328.819 9        55.069               
G10  25195021.672 7 132400741.819 7      1393.951 7        47.244               
G08  20299254.252 9 106673292.236 9      -303.100 9        56.698               
> 2022 06 08 00 04 36.0000000  0  7                                             
G01  23238891.339 8 122121196.537 8      3986.633 8        50.429               
G09  24956608.290 8 131147880.379 8     -2643.271 8        51.056               
G04  25589988.925 7 134476301.082 7     -2790.802 7        47.324               
G21  20844820.629 9 109540272.161 9      1964.311 9        55.919               
G16  22862969.061 8 120145730.801 8     -2343.854 8        53.925               
G10  25194759.293 7 132399351.662 7      1393.002 7        47.520               
G08  20299302.552 9 106673583.814 9      -280.233 9        58.931               
> 2022 06 08 00 04 37.0000000  0  7                                             
G01  23238136.784 8 122117238.778 8      3936.746 8        50.831               
G09  24957120.755 8 131150556.576 8     -2707.909 8        48.808               
G04  25590525.996 7 134479122.603 7     -2847.789 7        46.934               
G21  20844454.591 9 109538321.408 9      1940.356 9        55.528               
G16  22863411.677 8 120148059.456 8     -2307.781 8        51.915               
G10  25194489.086 7 132397932.420 7      1448.743 7        46.665               
G08  20299363.798 9 106673861.405 9      -281.060 9        56.569               
> 2022 06 08 00 04 38.0000000  0  7                                             
G01  23237390.868 8 122113313.401 8      3921.370 8        49.412               
G09  24957639.395 8 131153288.475 8     -2740.231 8        51.085               
G04  25591072.002 7 134481988.604 7     -2872.430 7        46.821               
G21  20844081.084 9 109536385.538 9      1936.019 9        55.696               
G16  22863848.226 9 120150349.665 9     -2284.719 9        55.304               
G10  25194208.185 7 132396459.837 7      1481.507 7        47.982               
G08  20299415.645 9 106674146.026 9      -283.927 9        55.990               
> 2022 06 08 00 04 39.0000000  0  7                                             
G01  23236646.105 8 122109390.112 8      3928.094 8        49.827               
G09  24958160.822 8 131156026.558 8     -2735.546 8        49.105               
G04  25591616.015 7 134484857.816 7     -2862.810 7        46.750               
G21  20843716.511 9 109534450.971 9      1932.509 9        57.198               
G16  22864282.014 9 120152634.898 9     -2288.395 9        54.690               
G10  25193925.417 8 132394981.022 8      1478.070 8        48.697               
G08  20299465.955 9 106674433.447 9      -297.296 9        58.122               
> 2022 06 08 00 04 40.0000000  0  7                                             
G01  23235895.856 8 122105453.423 8      3937.258 8        50.452               
G09  24958679.881 8 131158753.266 8     -2719.324 8        49.700               
G04  25592160.770 7 134487703.626 7     -2838.719 7        46.891               
G21  20843347.409 9 109532523.274 9      1923.944 9        55.969               
G16  22864722.414 8 120154934.307 8     -2306.259 8        52.544               
G10  25193646.142 8 132393514.279 8      1459.318 8        48.004               
G08  20299537.717 9 106674753.569 9      -329.709 9        58.306               
> 2022 06 08 00 04 41.0000000  0  7                                             
G01  23235146.385 8 122101512.662 8      3941.118 8        49.444               
G09  24959192.651 8 131161455.169 8     -2681.228 8        48.025               
G04  25592698.521 8 134490536.784 8     -2829.482 8        48.974               
G21  20842982.121 9 109530597.940 9      1931.571 9        56.575               
G16  22865164.842 9 120157258.958 9     -2342.421 9        54.092               
G10  25193372.487 8 132392076.867 8      1411.579 8        48.546               
G08  20299588.849 9 106675066.587 9      -284.753 9        59.675               
> 2022 06 08 00 04 42.0000000  0  7                                             
G01  23234395.939 8 122097573.249 8      3930.527 8        50.714               
G09  24959702.472 8 131164115.198 8     -2653.861 8        49.530               
G04  25593237.379 8 134493367.856 8     -2839.979 8        48.634               
G21  20842614.198 9 109528661.294 9      1942.273 9        56.389               
G16  22865613.373 8 120159615.812 8     -2361.094 8        52.878               
G10  25193109.213 8 132390686.844 8      1377.891 8        49.031               
G08  20299639.356 9 106675319.094 9      -219.831 9        59.033               
> 2022 06 08 00 04 43.0000000  0  7                                             
G01  23233649.961 8 122093657.704 8      3893.600 8        50.388               
G09  24960203.635 8 131166770.135 8     -2660.910 8        50.055               
G04  25593781.705 8 134496230.926 8     -2892.122 8        48.636               
G21  20842242.638 9 109526717.727 9      1945.426 9        57.549               
G16  22866062.618 8 120161975.711 8     -2353.444 8        53.921               
G10  25192848.236 8 132389307.653 8      1384.834 8        48.566               
G08  20299680.518 9 106675502.450 9      -144.483 9        60.092               
> 2022 06 08 00 04 44.0000000  0  7                                             
G01  23232912.971 8 122089779.736 8      3868.284 8        50.480               
G09  24960714.984 8 131169443.066 8     -2677.990 8        49.085               
G04  25594335.618 7 134499143.641 7     -2921.334 7        47.269               
G21  20841876.306 9 109524775.398 9      1937.277 9        56.363               
G16  22866509.209 8 120164324.547 8     -2351.108 8        51.625               
G10  25192581.121 7 132387917.762 7      1389.063 7        47.338               
G08  20299697.547 9 106675623.274 9      -116.176 9        58.128               
> 2022 06 08 00 04 45.0000000  0  7                                             
G01  23232176.312 8 122085914.598 8      3855.525 8        52.337               
G09  24961223.555 8 131172122.417 8     -2687.193 8        49.726               
G04  25594889.897 7 134502065.107 7     -2924.829 7        47.745               
G21  20841505.103 9 109522847.312 9      1909.753 9        57.349               
G16  22866957.561 8 120166679.958 8     -2362.671 8        52.604               
G10  25192316.392 8 132386527.849 8      1393.401 8        49.043               
G08  20299719.499 9 106675751.098 9      -151.156 9        57.282               
> 2022 06 08 00 04 46.0000000  0  7                                             
G01  23231446.175 8 122082072.013 8      3834.884 8        52.694               
G09  24961734.752 8 131174817.753 8     -2696.713 8        48.482               
G04  25595450.475 7 134504992.075 7     -2931.009 7        46.983               
G21  20841151.190 9 109520962.666 9      1866.608 9        54.904               
G16  22867409.683 8 120169056.649 8     -2385.059 8        52.231               
G10  25192054.110 7 132385137.129 7      1392.058 7        46.666               
G08  20299749.447 9 106675933.545 9      -202.896 9        57.741               
> 2022 06 08 00 04 47.0000000  0  7                                             
G01  23230717.351 8 122078250.286 8      3813.414 8        52.645               
G09  24962252.471 8 131177522.721 8     -2708.219 8        48.383               
G04  25596006.711 7 134507921.318 7     -2927.398 7        46.369               
G21  20840797.133 9 109519120.713 9      1823.208 9        56.345               
G16  22867866.674 8 120171459.964 8     -2416.023 8        52.756               
G10  25191790.390 8 132383752.503 8      1381.815 8        49.965               
G08  20299802.733 9 106676167.500 9      -256.449 9        57.752               
> 2022 06 08 00 04 48.0000000  0  7                                             
G01  23229992.914 8 122074440.122 8      3807.615 8        52.005               
G09  24962763.114 8 131180228.058 8     -2700.486 8        48.956               
G04  25596563.108 7 134510849.233 7     -2923.580 7        46.643               
G21  20840450.608 9 109517304.605 9      1809.976 9        55.743               
G16  22868327.257 9 120173884.505 9     -2431.783 9        54.196               
G10  25191527.331 8 132382377.864 8      1363.760 8        48.528               
G08  20299851.140 9 106676430.308 9      -267.873 9        57.628               
> 2022 06 08 00 04 49.0000000  0  7                                             
G01  23229265.019 8 122070632.086 8      3808.215 8        49.957               
G09  24963281.432 8 131182927.887 8     -2697.276 8        48.275               
G04  25597121.434 7 134513773.714 7     -2926.575 7        46.031               
G21  20840112.937 9 109515496.247 9      1808.019 9        54.946               
G16  22868790.288 8 120176320.591 8     -2436.571 8        53.510               
G10  25191267.024 8 132381012.722 8      1364.063 8        48.936               
G08  20299896.751 9 106676699.634 9      -268.653 9        57.687               
> 2022 06 08 00 04 50.0000000  0  7                                             
G01  23228540.314 8 122066823.246 8      3810.971 8        51.083               
G09  24963791.878 8 131185626.798 8     -2700.410 8        48.194               
G04  25597676.321 7 134516697.558 7     -2925.981 7        45.730               
G21  20839766.644 9 109513686.737 9      1810.511 9        55.986               
G16  22869253.730 8 120178756.374 8     -2434.343 8        52.305               
G10  25191009.264 8 132379648.378 8      1365.593 8        48.032               
G08  20299954.727 9 106676967.081 9      -266.478 9        56.649               
> 2022 06 08 00 04 51.0000000  0  7                                             
G01  23227819.933 8 122063013.756 8      3809.954 8        52.418               
G09  24964306.953 8 131188326.931 8     -2701.242 8        48.375               
G04  25598233.370 7 134519621.982 7     -2923.169 7        45.110               
G21  20839417.439 9 109511875.293 9      1812.904 9        55.575               
G16  22869716.770 8 120181189.173 8     -2428.121 8        50.295               
G10  25190749.725 7 132378282.098 7      1369.608 7        47.906               
G08  20300004.161 9 106677232.428 9      -263.583 9        56.909               
> 2022 06 08 00 04 52.0000000  0  7                                             
G01  23227093.879 8 122059203.226 8      3810.833 8        50.692               
G09  24964821.759 8 131191030.025 8     -2700.901 8        48.537               
G04  25598789.588 7 134522547.961 7     -2924.951 7        44.277               
G21  20839075.381 9 109510060.232 9      1816.429 9        56.813               
G16  22870178.399 8 120183615.928 8     -2426.104 8        50.042               
G10  25190486.050 7 132376911.261 7      1368.739 7        47.930               
G08  20300047.217 9 106677494.391 9      -259.555 9        56.544               
> 2022 06 08 00 04 53.0000000  0  7                                             
G01  23226366.673 8 122055390.320 8      3812.557 8        51.371               
G09  24965334.672 8 131193732.210 8     -2699.670 8        49.031               
G04  25599347.245 7 134525473.537 7     -2926.041 7        44.215               
G21  20838730.080 9 109508240.462 9      1819.830 9        54.529               
G16  22870640.188 8 120186039.393 8     -2424.914 8        50.469               
G10  25190225.251 7 132375539.807 7      1372.942 7        46.854               
G08  20300104.103 9 106677750.422 9      -254.335 9        57.890               
> 2022 06 08 00 04 54.0000000  0  7                                             
G01  23225643.361 8 122051576.010 8      3813.278 8        50.865               
G09  24965850.238 8 131196428.065 8     -2688.614 8        49.059               
G04  25599903.320 7 134528395.515 7     -2920.905 7        44.873               
G21  20838378.677 9 109506421.083 9      1818.075 9        56.484               
G16  22871103.005 8 120188468.979 8     -2436.004 8        51.990               
G10  25189968.590 7 132374175.871 7      1357.862 7        45.994               
G08  20300151.116 9 106678004.634 9      -253.817 9        57.691               
> 2022 06 08 00 04 55.0000000  0  7                                             
G01  23224916.208 8 122047760.401 8      3815.042 8        49.967               
G09  24966358.638 7 131199117.254 7     -2688.121 7        47.602               
G04  25600457.108 7 134531313.465 7     -2917.065 7        45.742               
G21  20838035.046 9 109504602.896 9      1818.784 9        57.262               
G16  22871567.349 8 120190905.653 8     -2436.883 8        52.236               
G10  25189710.061 7 132372820.094 7      1353.722 7        45.767               
G08  20300193.689 9 106678258.155 9      -252.899 9        56.963               
> 2022 06 08 00 04 56.0000000  0  7                                             
G01  23224194.184 8 122043943.357 8      3819.116 8        49.645               
G09  24966873.516 8 131201804.451 8     -2685.057 8        48.785               
G04  25601013.424 8 134534230.163 8     -2916.019 8        48.489               
G21  20837690.871 9 109502782.956 9      1821.478 9        55.167               
G16  22872031.515 9 120193342.535 9     -2435.568 9        54.007               
G10  25189449.727 7 132371466.062 7      1353.010 7        46.530               
G08  20300247.671 9 106678508.965 9      -248.840 9        56.316               
> 2022 06 08 00 04 57.0000000  0  7                                             
G01  23223459.043 8 122040100.177 8      3876.715 8        52.004               
G09  24967379.085 7 131204472.955 7     -2644.607 7        47.047               
G04  25601563.736 7 134537123.031 7     -2862.222 7        45.976               
G21  20837337.029 8 109500941.504 8      1869.834 8        51.842               
G16  22872494.689 8 120195776.853 8     -2428.592 8        50.393               
G10  25189194.772 8 132370121.599 8      1332.011 8        49.156               
G08  20300295.730 9 106678754.849 9      -242.036 9        54.895               
> 2022 06 08 00 04 58.0000000  0  7                                             
G01  23222714.155 8 122036183.498 8      3947.839 8        50.808               
G09  24967875.423 7 131207087.137 7     -2581.608 7        46.169               
G04  25602100.477 7 134539947.197 7     -2797.876 7        45.600               
G21  20836978.281 9 109499042.040 9      1923.062 9        55.767               
G16  22872956.969 8 120198207.852 8     -2439.779 8        49.791               
G10  25188946.473 7 132368806.374 7      1289.903 7        46.423               
G08  20300336.114 9 106678991.344 9      -228.008 9        57.955               
> 2022 06 08 00 04 59.0000000  0  7                                             
G01  23221958.787 8 122032213.099 8      3987.212 8        49.526               
G09  24968363.096 7 131209634.671 7     -2507.290 7        45.956               
G04  25602627.202 7 134542712.906 7     -2741.150 7        44.936               
G21  20836608.419 9 109497102.874 9      1952.254 9        57.278               
G16  22873423.949 8 120200664.994 8     -2481.066 8        51.906               
G10  25188703.847 7 132367545.455 7      1229.511 7        47.445               
G08  20300377.704 9 106679204.650 9      -196.829 9        58.986               
> 2022 06 08 00 05 00.0000000  0  7                                             
G01  23221195.628 8 122028204.446 8      4019.102 8        52.407               
G09  24968836.804 7 131212119.711 7     -2474.812 7        47.646               
G04  25603144.332 7 134545431.286 7     -2709.543 7        44.274               
G21  20836235.475 9 109495138.780 9      1969.286 9        57.005               
G16  22873897.309 8 120203158.078 8     -2497.150 8        52.754               
G10  25188477.992 7 132366342.156 7      1196.419 7        47.958               
G08  20300417.606 9 106679396.061 9      -194.242 9        59.910               
> 2022 06 08 00 05 01.0000000  0  7                                             
G01  23220431.852 8 122024198.966 8      3988.747 8        50.822               
G09  24969311.834 7 131214615.017 7     -2527.389 7        47.641               
G04  25603661.461 7 134548150.108 7     -2736.568 7        43.820               
G21  20835863.201 9 109493184.505 9      1939.686 9        55.227               
G16  22874370.749 8 120205648.840 8     -2472.747 8        51.512               
G10  25188244.220 7 132365130.374 7      1242.393 7        47.472               
G08  20300456.623 9 106679608.900 9      -231.024 9        57.292               
> 2022 06 08 00 05 02.0000000  0  7                                             
G01  23219677.404 8 122020224.437 8      3966.459 8        51.374               
G09  24969793.458 8 131217167.356 8     -2562.707 8        48.269               
G04  25604186.239 7 134550907.148 7     -2767.005 7        46.709               
G21  20835493.928 8 109491252.991 8      1922.517 8        53.553               
G16  22874839.355 8 120208105.711 8     -2452.535 8        51.827               
G10  25188005.740 7 132363865.386 7      1274.600 7        47.351               
G08  20300495.667 9 106679849.163 9      -245.921 9        57.507               
> 2022 06 08 00 05 03.0000000  0  7                                             
G01  23218925.082 8 122016267.443 8      3949.056 8        51.007               
G09  24970282.586 7 131219729.728 7     -2566.391 7        46.568               
G04  25604713.375 7 134553676.854 7     -2773.571 7        46.125               
G21  20835133.358 9 109489340.156 9      1905.691 9        56.062               
G16  22875308.819 8 120210569.680 8     -2468.190 8        53.138               
G10  25187764.571 7 132362598.517 7      1265.013 7        46.682               
G08  20300550.614 9 106680098.725 9      -252.972 9        56.490               
> 2022 06 08 00 05 04.0000000  0  7                                             
G01  23218174.878 8 122012328.080 8      3929.106 8        50.384               
G09  24970774.565 7 131222305.428 7     -2593.655 7        45.983               
G04  25605243.218 7 134556462.028 7     -2802.518 7        46.116               
G21  20834767.660 9 109487442.904 9      1891.293 9        56.979               
G16  22875778.872 8 120213035.144 8     -2455.301 8        52.475               
G10  25187520.006 7 132361325.010 7      1292.481 7        45.595               
G08  20300598.226 9 106680353.620 9      -255.698 9        58.383               
> 2022 06 08 00 05 05.0000000  0  7                                             
G01  23217430.892 8 122008421.314 8      3897.669 8        50.381               
G09  24971272.441 7 131224928.808 7     -2641.571 7        44.514               
G04  25605781.978 7 134559290.619 7     -2845.799 7        47.276               
G21  20834414.085 9 109485559.300 9      1881.182 9        55.502               
G16  22876242.171 8 120215469.327 8     -2420.632 8        51.083               
G10  25187273.128 7 132360007.469 7      1335.393 7        46.910               
G08  20300641.674 9 106680606.070 9      -251.308 9        58.145               
> 2022 06 08 00 05 06.0000000  0  7                                             
G01  23216689.399 8 122004526.509 8      3895.141 8        48.739               
G09  24971775.454 7 131227579.283 7     -2658.257 7        44.543               
G04  25606323.293 7 134562139.720 7     -2851.074 7        46.127               
G21  20834052.810 9 109483676.962 9      1886.241 9        54.329               
G16  22876700.673 8 120217879.565 8     -2399.355 8        49.964               
G10  25187016.118 7 132358661.456 7      1351.709 7        46.656               
G08  20300694.004 9 106680857.284 9      -251.809 9        58.809               
> 2022 06 08 00 05 07.0000000  0  7                                             
G01  23215944.243 8 122000611.381 8      3933.693 8        51.554               
G09  24972285.588 7 131230237.626 7     -2661.893 7        46.394               
G04  25606864.466 7 134564979.166 7     -2827.395 7        47.862               
G21  20833690.381 9 109481772.272 9      1926.342 9        55.891               
G16  22877153.027 8 120220261.261 8     -2358.502 8        53.832               
G10  25186753.381 7 132357294.660 7      1382.824 7        46.399               
G08  20300744.779 9 106681111.037 9      -256.486 9        59.609               
> 2022 06 08 00 05 08.0000000  0  7                                             
G01  23215194.334 8 121996666.298 8      3950.998 8        50.863               
G09  24972790.781 7 131232916.599 7     -2702.980 7        47.239               
G04  25607402.207 7 134567808.289 7     -2831.636 7        45.844               
G21  20833323.351 9 109479831.949 9      1952.842 9        54.198               
G16  22877596.089 8 120222589.988 8     -2296.405 8        52.606               
G10  25186485.881 7 132355885.633 7      1439.188 7        46.994               
G08  20300788.191 9 106681370.375 9      -265.742 9        56.700               
> 2022 06 08 00 05 09.0000000  0  7                                             
G01  23214442.834 8 121992718.029 8      3944.417 8        50.038               
G09  24973310.689 8 131235634.582 8     -2723.569 8        48.599               
G04  25607943.058 7 134570647.848 7     -2844.561 7        47.288               
G21  20832950.166 9 109477883.453 9      1938.869 9        56.079               
G16  22878030.503 8 120224873.099 8     -2284.141 8        53.649               
G10  25186209.912 7 132354427.177 7      1458.432 7        47.740               
G08  20300845.390 9 106681650.569 9      -293.240 9        56.719               
> 2022 06 08 00 05 10.0000000  0  7                                             
G01  23213694.998 8 121988788.196 8      3911.851 8        52.305               
G09  24973828.917 8 131238366.532 8     -2739.585 8        48.250               
G04  25608485.561 7 134573498.560 7     -2858.787 7        46.579               
G21  20832587.085 9 109475959.470 9      1904.433 9        56.032               
G16  22878466.820 8 120227163.934 8     -2299.030 8        53.331               
G10  25185931.951 7 132352963.932 7      1464.869 7        46.884               
G08  20300902.392 9 106681953.412 9      -312.063 9        58.255               
> 2022 06 08 00 05 11.0000000  0  7                                             
G01  23212953.541 8 121984882.478 8      3908.658 8        50.645               
G09  24974352.632 8 131241111.133 8     -2744.858 8        48.468               
G04  25609030.709 7 134576366.611 7     -2867.699 7        45.276               
G21  20832221.610 9 109474060.809 9      1899.512 9        55.047               
G16  22878903.959 9 120229465.445 9     -2299.771 9        54.488               
G10  25185653.167 8 132351499.260 8      1463.917 8        48.578               
G08  20300954.945 9 106682267.514 9      -312.025 9        58.993               
> 2022 06 08 00 05 12.0000000  0  7                                             
G01  23212207.384 8 121980966.372 8      3933.525 8        50.977               
G09  24974872.879 7 131243850.590 7     -2728.041 7        47.649               
G04  25609574.598 7 134579227.832 7     -2847.980 7        45.863               
G21  20831862.407 9 109472150.063 9      1930.627 9        56.225               
G16  22879338.516 9 120231760.782 9     -2286.868 9        54.824               
G10  25185373.463 8 132350034.841 8      1460.406 8        48.629               
G08  20301024.724 9 106682573.878 9      -296.634 9        58.178               
> 2022 06 08 00 05 13.0000000  0  7                                             
G01  23211457.537 8 121977023.586 8      3946.442 8        52.185               
G09  24975391.537 7 131246575.704 7     -2720.725 7        47.665               
G04  25610117.128 7 134582070.175 7     -2836.217 7        45.505               
G21  20831488.346 9 109470210.363 9      1946.556 9        57.729               
G16  22879774.493 8 120234043.355 8     -2278.274 8        53.535               
G10  25185092.643 8 132348572.646 8      1462.621 8        48.782               
G08  20301073.229 9 106682864.491 9      -285.260 9        57.562               
> 2022 06 08 00 05 14.0000000  0  7                                             
G01  23210704.054 8 121973072.625 8      3951.000 8        50.838               
G09  24975910.069 7 131249297.269 7     -2720.517 7        46.768               
G04  25610655.790 7 134584910.197 7     -2841.033 7        47.917               
G21  20831121.298 9 109468256.326 9      1956.776 9        55.213               
G16  22880210.113 8 120236316.885 8     -2270.044 8        53.099               
G10  25184815.155 8 132347108.826 8      1465.315 8        48.384               
G08  20301125.657 9 106683139.298 9      -269.684 9        57.411               
> 2022 06 08 00 05 15.0000000  0  7                                             
G01  23209955.172 8 121969127.568 8      3942.481 8        50.712               
G09  24976426.841 7 131252022.712 7     -2723.110 7        46.589               
G04  25611198.937 7 134587759.037 7     -2852.587 7        47.609               
G21  20830745.477 9 109466301.175 9      1953.545 9        56.957               
G16  22880638.299 8 120238586.565 8     -2272.832 8        53.475               
G10  25184536.183 8 132345641.947 8      1464.735 8        48.246               
G08  20301183.901 9 106683401.946 9      -255.153 9        56.741               
> 2022 06 08 00 05 16.0000000  0  7                                             
G01  23209201.573 8 121965173.672 8      3971.864 8        51.932               
G09  24976941.308 7 131254713.240 7     -2656.838 7        45.070               
G04  25611736.982 7 134590588.312 7     -2805.803 7        47.102               
G21  20830376.696 9 109464346.222 9      1956.688 9        56.417               
G16  22881077.046 9 120240889.145 9     -2333.012 9        54.070               
G10  25184266.924 8 132344214.620 8      1389.546 8        48.472               
G08  20301223.499 9 106683654.937 9      -253.720 9        57.962               
> 2022 06 08 00 05 17.0000000  0  7                                             
G01  23208441.434 8 121961180.182 8      4020.736 8        51.697               
G09  24977437.656 7 131257338.052 7     -2602.420 7        45.319               
G04  25612265.539 7 134593361.120 7     -2744.534 7        47.751               
G21  20829999.016 9 109462377.475 9      1985.804 9        56.747               
G16  22881524.871 8 120243238.963 8     -2360.279 8        51.641               
G10  25184007.591 7 132342851.361 7      1340.392 7        47.122               
G08  20301272.040 9 106683909.347 9      -255.648 9        58.425               
> 2022 06 08 00 05 18.0000000  0  7                                             
G01  23207668.956 8 121957119.909 8      4093.551 8        51.092               
G09  24977928.446 7 131259911.491 7     -2553.025 7        46.754               
G04  25612778.853 7 134596067.728 7     -2675.698 7        47.620               
G21  20829618.853 9 109460361.545 9      2042.271 9        56.849               
G16  22881972.606 8 120245591.578 8     -2346.146 8        52.046               
G10  25183751.215 8 132341518.555 8      1323.550 8        48.292               
G08  20301327.863 9 106684164.971 9      -255.250 9        58.124               
> 2022 06 08 00 05 19.0000000  0  7                                             
G01  23206883.657 8 121953017.631 8      4106.528 8        50.360               
G09  24978415.386 8 131262459.303 8     -2546.951 8        48.296               
G04  25613288.496 7 134598737.382 7     -2671.012 7        47.813               
G21  20829225.109 9 109458310.881 9      2057.532 9        56.189               
G16  22882418.840 8 120247935.400 8     -2340.995 8        52.590               
G10  25183499.646 8 132340195.668 8      1322.639 8        49.266               
G08  20301368.774 9 106684416.087 9      -243.642 9        57.898               
> 2022 06 08 00 05 20.0000000  0  7                                             
G01  23206105.774 8 121948909.863 8      4112.044 8        48.712               
G09  24978899.771 7 131265004.250 7     -2546.008 7        46.956               
G04  25613794.189 7 134601405.233 7     -2668.437 7        47.463               
G21  20828836.163 9 109456250.808 9      2059.952 9        54.891               
G16  22882864.217 8 120250273.680 8     -2336.881 8        53.032               
G10  25183250.730 8 132338872.407 8      1322.222 8        49.180               
G08  20301410.248 9 106684656.487 9      -239.224 9        56.640               
> 2022 06 08 00 05 21.0000000  0  7                                             
G01  23205325.094 8 121944804.928 8      4101.845 8        49.020               
G09  24979382.788 8 131267552.219 8     -2551.584 8        48.366               
G04  25614303.295 7 134604074.576 7     -2672.256 7        47.676               
G21  20828442.070 9 109454195.110 9      2050.883 9        54.241               
G16  22883309.638 8 120252612.464 8     -2339.186 8        53.107               
G10  25182995.695 7 132337547.727 7      1325.022 7        46.893               
G08  20301464.748 9 106684901.929 9      -252.058 9        57.712               
> 2022 06 08 00 05 22.0000000  0  7                                             
G01  23204545.352 8 121940705.387 8      4100.275 8        50.900               
G09  24979868.325 7 131270105.354 7     -2551.116 7        47.564               
G04  25614814.778 8 134606746.552 8     -2672.120 8        48.878               
G21  20828052.392 8 109452147.994 8      2045.794 8        52.946               
G16  22883754.970 8 120254953.252 8     -2339.786 8        52.207               
G10  25182744.001 8 132336220.882 8      1326.383 8        48.218               
G08  20301511.297 9 106685157.423 9      -256.558 9        58.424               
> 2022 06 08 00 05 23.0000000  0  7                                             
G01  23203763.842 8 121936606.891 8      4096.913 8        50.147               
G09  24980356.409 7 131272659.172 7     -2552.309 7        46.990               
G04  25615322.267 7 134609418.648 7     -2668.366 7        47.334               
G21  20827666.742 9 109450102.949 9      2042.290 9        54.535               
G16  22884200.516 8 120257294.802 8     -2342.522 8        52.904               
G10  25182491.315 8 132334894.285 8      1327.465 8        48.609               
G08  20301553.709 9 106685415.086 9      -260.430 9        59.223               
> 2022 06 08 00 05 24.0000000  0  7                                             
G01  23202984.931 8 121932512.235 8      4091.948 8        49.662               
G09  24980843.250 7 131275214.370 7     -2555.942 7        47.114               
G04  25615830.337 7 134612090.793 7     -2673.153 7        47.866               
G21  20827274.258 9 109448066.047 9      2028.956 9        54.583               
G16  22884647.134 8 120259641.486 8     -2351.958 8        53.695               
G10  25182238.030 7 132333569.519 7      1321.897 7        47.780               
G08  20301613.151 9 106685682.103 9      -277.627 9        56.697               
> 2022 06 08 00 05 25.0000000  0  7                                             
G01  23202206.967 8 121928422.666 8      4087.513 8        49.863               
G09  24981326.608 7 131277771.347 7     -2556.929 7        46.037               
G04  25616339.024 7 134614763.035 7     -2669.334 7        47.112               
G21  20826893.630 9 109446039.852 9      2024.429 9        55.537               
G16  22885095.459 8 120261995.047 8     -2355.271 8        53.248               
G10  25181986.354 7 132332247.100 7      1323.085 7        46.410               
G08  20301664.006 9 106685961.541 9      -280.771 9        58.226               
> 2022 06 08 00 05 26.0000000  0  7                                             
G01  23201429.817 8 121924335.020 8      4085.204 8        50.274               
G09  24981812.582 7 131280328.735 7     -2558.267 7        46.914               
G04  25616845.905 7 134617435.015 7     -2672.536 7        47.820               
G21  20826505.301 9 109444018.069 9      2015.375 9        56.022               
G16  22885543.873 8 120264351.540 8     -2360.070 8        53.600               
G10  25181738.752 7 132330926.112 7      1318.476 7        46.603               
G08  20301713.584 9 106686245.896 9      -291.574 9        57.935               
> 2022 06 08 00 05 27.0000000  0  7                                             
G01  23200655.364 8 121920263.222 8      4057.863 8        51.693               
G09  24982302.810 8 131282888.910 8     -2563.314 8        49.592               
G04  25617355.056 7 134620105.583 7     -2666.790 7        44.866               
G21  20826130.015 9 109442031.572 9      1955.838 9        55.640               
G16  22885996.558 8 120266734.278 8     -2404.824 8        52.639               
G10  25181486.844 8 132329615.770 8      1300.880 8        49.302               
G08  20301786.757 9 106686571.748 9      -363.264 9        56.491               
> 2022 06 08 00 05 28.0000000  0  7                                             
G01  23199883.539 8 121916209.566 8      4050.931 8        51.265               
G09  24982790.938 8 131285452.283 8     -2559.213 8        48.384               
G04  25617861.670 7 134622774.647 7     -2670.607 7        45.861               
G21  20825756.776 9 109440085.320 9      1942.383 9        55.719               
G16  22886455.917 9 120269146.961 9     -2414.159 9        54.255               
G10  25181239.724 8 132328317.526 8      1298.407 8        48.632               
G08  20301846.100 9 106686944.877 9      -377.641 9        58.067               
> 2022 06 08 00 05 29.0000000  0  7                                             
G01  23199111.981 8 121912157.748 8      4049.805 8        50.438               
G09  24983275.627 8 131288015.929 8     -2561.592 8        48.066               
G04  25618370.803 7 134625443.352 7     -2667.634 7        46.744               
G21  20825391.185 9 109438143.302 9      1941.853 9        56.135               
G16  22886915.509 8 120271562.513 8     -2415.231 8        50.597               
G10  25180995.240 7 132327020.795 7      1298.541 7        47.243               
G08  20301928.923 9 106687322.664 9      -378.045 9        59.119               
> 2022 06 08 00 05 30.0000000  0  7                                             
G01  23198340.415 8 121908106.041 8      4052.052 8        50.431               
G09  24983762.834 8 131290579.518 8     -2562.641 8        48.716               
G04  25618877.560 7 134628111.805 7     -2669.633 7        47.207               
G21  20825016.963 9 109436201.751 9      1941.734 9        55.580               
G16  22887374.028 8 120273978.116 8     -2415.358 8        51.218               
G10  25180745.896 8 132325724.486 8      1296.057 8        48.114               
G08  20301991.724 9 106687700.656 9      -377.311 9        59.505               
> 2022 06 08 00 05 31.0000000  0  7                                             
G01  23197569.438 8 121904053.530 8      4054.808 8        52.127               
G09  24984254.733 7 131293142.738 7     -2562.174 7        46.953               
G04  25619385.496 7 134630779.955 7     -2669.908 7        45.883               
G21  20824652.292 9 109434258.755 9      1943.147 9        54.544               
G16  22887832.029 8 120276392.495 8     -2413.692 8        50.306               
G10  25180499.991 8 132324428.221 8      1297.692 8        48.605               
G08  20302070.437 9 106688076.581 9      -375.189 9        57.499               
> 2022 06 08 00 05 32.0000000  0  7                                             
G01  23196798.622 8 121900000.947 8      4053.545 8        50.713               
G09  24984742.664 8 131295705.912 8     -2565.355 8        48.404               
G04  25619894.396 7 134633447.906 7     -2668.448 7        46.199               
G21  20824276.935 8 109432315.758 8      1943.365 8        53.204               
G16  22888292.165 8 120278806.530 8     -2413.470 8        53.799               
G10  25180255.176 7 132323132.186 7      1294.198 7        47.489               
G08  20302136.088 9 106688452.169 9      -375.423 9        58.357               
> 2022 06 08 00 05 33.0000000  0  7                                             
G01  23196030.808 8 121895961.601 8      4018.635 8        50.638               
G09  24985228.076 8 131298276.379 8     -2582.788 8        48.420               
G04  25620402.511 7 134636131.360 7     -2711.155 7        47.129               
G21  20823913.595 9 109430376.915 9      1932.777 9        56.910               
G16  22888750.532 8 120281218.689 8     -2409.330 8        50.944               
G10  25180005.073 7 132321832.470 7      1304.909 7        47.144               
G08  20302208.949 9 106688813.808 9      -337.325 9        59.416               
> 2022 06 08 00 05 34.0000000  0  7                                             
G01  23195271.115 8 121891970.691 8      3968.378 8        49.486               
G09  24985722.905 8 131300873.590 8     -2611.670 8        48.705               
G04  25620926.127 7 134638872.757 7     -2770.190 7        46.479               
G21  20823542.357 9 109428451.779 9      1918.342 9        55.854               
G16  22889209.007 8 120283623.829 8     -2402.436 8        52.543               
G10  25179756.470 7 132320518.263 7      1317.670 7        46.051               
G08  20302265.048 9 106689122.616 9      -283.045 9        56.914               
> 2022 06 08 00 05 35.0000000  0  7                                             
G01  23194518.901 8 121888020.033 8      3936.479 8        51.530               
G09  24986225.016 8 131303494.837 8     -2632.395 8        48.492               
G04  25621455.899 7 134641662.454 7     -2807.672 7        47.625               
G21  20823182.011 9 109426538.487 9      1907.721 9        55.408               
G16  22889665.917 9 120286021.675 9     -2393.521 9        54.489               
G10  25179504.561 7 132319190.013 7      1335.125 7        47.657               
G08  20302311.418 9 106689389.843 9      -253.011 9        58.342               
> 2022 06 08 00 05 36.0000000  0  7                                             
G01  23193776.032 8 121884114.167 8      3878.426 8        50.450               
G09  24986726.733 8 131306150.330 8     -2675.251 8        48.608               
G04  25621997.920 7 134644506.681 7     -2880.632 7        47.141               
G21  20822818.957 9 109424640.071 9      1889.062 9        58.390               
G16  22890119.657 8 120288405.276 8     -2373.836 8        53.773               
G10  25179245.148 7 132317837.610 7      1366.951 7        47.584               
G08  20302362.238 9 106689620.411 9      -207.535 9        58.718               
> 2022 06 08 00 05 37.0000000  0  7                                             
G01  23193043.840 8 121880260.345 8      3842.922 8        50.625               
G09  24987241.906 7 131308847.160 7     -2706.656 7        47.940               
G04  25622551.475 8 134647414.498 8     -2920.413 8        48.630               
G21  20822459.611 9 109422759.193 9      1876.996 9        57.207               
G16  22890569.777 9 120290771.076 9     -2362.081 9        55.280               
G10  25178982.303 7 132316455.328 7      1387.949 7        47.890               
G08  20302397.931 9 106689810.236 9      -181.053 9        59.312               
> 2022 06 08 00 05 38.0000000  0  7                                             
G01  23192313.140 8 121876417.210 8      3844.734 8        50.244               
G09  24987756.507 8 131311552.350 8     -2706.059 8        50.038               
G04  25623106.505 7 134650335.120 7     -2922.238 7        46.707               
G21  20822106.653 9 109420882.209 9      1877.273 9        56.364               
G16  22891019.067 9 120293133.459 9     -2361.248 9        55.010               
G10  25178720.326 8 132315067.354 8      1386.291 8        48.958               
G08  20302429.765 9 106689991.769 9      -180.888 9        59.310               
> 2022 06 08 00 05 39.0000000  0  7                                             
G01  23191578.428 8 121872573.774 8      3840.684 8        50.169               
G09  24988270.144 8 131314257.385 8     -2701.344 8        49.248               
G04  25623661.794 7 134653255.508 7     -2919.359 7        45.777               
G21  20821744.975 9 109419004.834 9      1878.192 9        55.401               
G16  22891468.348 8 120295495.511 8     -2362.584 8        53.823               
G10  25178456.749 7 132313679.624 7      1385.373 7        47.878               
G08  20302460.491 9 106690172.533 9      -180.135 9        56.975               
> 2022 06 08 00 05 40.0000000  0  7                                             
G01  23190847.629 8 121868729.906 8      3844.355 8        49.554               
G09  24988786.844 8 131316962.287 8     -2705.218 8        50.087               
G04  25624219.513 7 134656175.676 7     -2919.938 7        46.323               
G21  20821390.445 9 109417126.859 9      1877.009 9        56.419               
G16  22891918.576 8 120297857.040 8     -2362.065 8        52.312               
G10  25178189.732 7 132312292.046 7      1388.304 7        47.293               
G08  20302501.902 9 106690352.296 9      -180.369 9        57.409               
> 2022 06 08 00 05 41.0000000  0  7                                             
G01  23190117.885 8 121864886.045 8      3844.562 8        50.006               
G09  24989298.122 8 131319667.185 8     -2704.773 8        49.683               
G04  25624773.069 7 134659095.631 7     -2919.121 7        45.952               
G21  20821033.609 9 109415249.124 9      1878.386 9        57.418               
G16  22892367.401 8 120300218.616 8     -2361.594 8        53.058               
G10  25177926.137 8 132310904.786 8      1387.192 8        48.063               
G08  20302538.820 9 106690532.053 9      -179.790 9        58.923               
> 2022 06 08 00 05 42.0000000  0  7                                             
G01  23189387.114 8 121861041.329 8      3846.656 8        53.140               
G09  24989816.556 8 131322371.673 8     -2703.012 8        49.035               
G04  25625328.348 7 134662015.287 7     -2916.703 7        45.696               
G21  20820672.253 9 109413369.911 9      1883.624 9        56.514               
G16  22892816.744 8 120302579.207 8     -2358.626 8        53.344               
G10  25177663.712 8 132309517.647 8      1388.520 8        48.282               
G08  20302566.803 9 106690709.709 9      -172.782 9        59.217               
> 2022 06 08 00 05 43.0000000  0  7                                             
G01  23188652.715 8 121857193.440 8      3850.155 8        51.266               
G09  24990327.896 7 131325074.661 7     -2705.461 7        46.809               
G04  25625886.863 7 134664934.391 7     -2920.619 7        46.380               
G21  20820318.401 9 109411484.570 9      1885.520 9        55.172               
G16  22893265.123 8 120304936.017 8     -2355.706 8        51.823               
G10  25177400.287 7 132308130.071 7      1388.694 7        47.056               
G08  20302593.937 9 106690879.590 9      -168.794 9        58.318               
> 2022 06 08 00 05 44.0000000  0  7                                             
G01  23187919.576 8 121853346.735 8      3845.030 8        50.782               
G09  24990844.980 7 131327778.053 7     -2705.957 7        47.938               
G04  25626439.819 7 134667853.358 7     -2920.576 7        45.753               
G21  20819956.116 9 109409601.886 9      1878.594 9        55.092               
G16  22893713.341 9 120307294.484 9     -2361.226 9        55.688               
G10  25177134.468 7 132306743.297 7      1386.380 7        46.335               
G08  20302631.783 9 106691052.325 9      -176.622 9        57.913               
> 2022 06 08 00 05 45.0000000  0  7                                             
G01  23187191.127 8 121849503.972 8      3838.692 8        50.756               
G09  24991358.581 8 131330483.541 8     -2712.083 8        48.792               
G04  25626996.556 7 134670772.638 7     -2922.018 7        47.924               
G21  20819600.576 9 109407727.377 9      1865.757 9        54.918               
G16  22894163.693 9 120309657.545 9     -2367.181 9        55.422               
G10  25176869.568 7 132305357.523 7      1387.112 7        46.253               
G08  20302673.329 9 106691234.858 9      -194.925 9        56.839               
> 2022 06 08 00 05 46.0000000  0  7                                             
G01  23186461.562 8 121845672.824 8      3825.088 8        48.992               
G09  24991874.415 8 131333195.813 8     -2714.437 8        48.608               
G04  25627552.729 7 134673693.438 7     -2919.939 7        46.315               
G21  20819250.218 9 109405876.224 9      1839.151 9        54.533               
G16  22894615.690 9 120312033.202 9     -2382.614 9        54.919               
G10  25176608.457 7 132303973.238 7      1379.085 7        47.155               
G08  20302708.566 9 106691446.431 9      -225.556 9        57.758               
> 2022 06 08 00 05 47.0000000  0  7                                             
G01  23185736.821 8 121841858.409 8      3808.143 8        48.995               
G09  24992393.117 7 131335914.270 7     -2717.793 7        47.570               
G04  25628108.634 7 134676615.161 7     -2921.849 7        47.131               
G21  20818899.503 8 109404059.505 8      1804.746 8        52.838               
G16  22895072.172 8 120314431.233 8     -2407.634 8        52.689               
G10  25176347.248 7 132302595.492 7      1373.359 7        46.499               
G08  20302749.469 9 106691698.687 9      -265.193 9        56.081               
> 2022 06 08 00 05 48.0000000  0  7                                             
G01  23185010.374 8 121838046.911 8      3813.709 8        50.787               
G09  24992907.325 8 131338628.438 8     -2710.065 8        48.434               
G04  25628663.664 7 134679534.755 7     -2917.323 7        46.513               
G21  20818557.749 9 109402250.382 9      1814.975 9        54.914               
G16  22895531.040 8 120316839.568 8     -2409.013 8        53.628               
G10  25176085.449 8 132301225.932 8      1366.722 8        48.695               
G08  20302806.730 9 106691956.543 9      -249.095 9        57.873               
> 2022 06 08 00 05 49.0000000  0  7                                             
G01  23184281.800 8 121834231.376 8      3817.497 8        50.381               
G09  24993426.107 8 131341335.715 8     -2703.076 8        48.099               
G04  25629218.676 7 134682451.534 7     -2917.908 7        47.224               
G21  20818216.039 9 109400434.871 9      1815.478 9        55.324               
G16  22895989.926 9 120319249.124 9     -2408.956 9        54.261               
G10  25175824.043 8 132299862.049 8      1364.753 8        48.630               
G08  20302852.939 9 106692203.670 9      -246.613 9        57.373               
> 2022 06 08 00 05 50.0000000  0  7                                             
G01  23183555.594 8 121830417.324 8      3810.783 8        52.704               
G09  24993937.188 8 131344044.590 8     -2713.166 8        50.342               
G04  25629774.027 7 134685368.686 7     -2920.488 7        47.739               
G21  20817868.496 9 109398622.286 9      1807.293 9        57.564               
G16  22896448.802 8 120321659.360 8     -2410.770 8        53.058               
G10  25175566.497 8 132298497.680 8      1365.504 8        49.475               
G08  20302894.315 9 106692454.483 9      -258.920 9        59.221               
> 2022 06 08 00 05 51.0000000  0  7                                             
G01  23182834.132 8 121826604.228 8      3828.599 8        50.675               
G09  24994457.311 7 131346759.667 7     -2705.094 7        46.658               
G04  25630326.144 8 134688282.694 8     -2892.504 8        48.708               
G21  20817522.239 9 109396818.881 9      1813.460 9        57.361               
G16  22896907.920 9 120324070.080 9     -2411.272 9        54.692               
G10  25175306.869 8 132297128.767 8      1361.583 8        48.809               
G08  20302953.667 9 106692726.960 9      -279.827 9        59.055               
> 2022 06 08 00 05 52.0000000  0  7                                             
G01  23182095.150 8 121822733.037 8      3908.776 8        50.259               
G09  24994964.183 8 131349434.754 8     -2649.117 8        49.236               
G04  25630871.203 7 134691139.351 7     -2819.401 7        47.899               
G21  20817176.572 9 109394975.928 9      1873.391 9        55.194               
G16  22897366.564 8 120326479.192 8     -2405.323 8        51.486               
G10  25175047.652 7 132295781.103 7      1337.263 7        47.343               
G08  20303005.809 9 106693007.335 9      -277.887 9        60.176               
> 2022 06 08 00 05 53.0000000  0  7                                             
G01  23181346.053 8 121818792.803 8      3961.409 8        50.909               
G09  24995463.828 7 131352062.533 7     -2613.503 7        46.752               
G04  25631403.548 7 134693932.040 7     -2768.791 7        47.104               
G21  20816812.696 9 109393079.314 9      1915.017 9        55.292               
G16  22897823.832 8 120328881.340 8     -2399.341 8        51.709               
G10  25174795.788 8 132294456.678 8      1317.425 8        48.255               
G08  20303050.982 9 106693283.547 9      -274.932 9        59.807               
> 2022 06 08 00 05 54.0000000  0  7                                             
G01  23180586.173 8 121814799.016 8      4028.720 8        51.291               
G09  24995961.159 8 131354659.856 8     -2579.586 8        49.520               
G04  25631925.082 7 134696677.300 7     -2713.242 7        46.931               
G21  20816445.184 9 109391139.931 9      1969.368 9        55.419               
G16  22898278.465 8 120331270.915 8     -2380.157 8        52.707               
G10  25174548.204 8 132293142.570 8      1310.560 8        48.445               
G08  20303112.031 9 106693559.057 9      -275.641 9        60.972               
> 2022 06 08 00 05 55.0000000  0  7                                             
G01  23179812.132 8 121810734.220 8      4088.011 8        50.208               
G09  24996447.741 8 131357221.613 8     -2548.151 8        48.748               
G04  25632436.708 8 134699360.973 8     -2661.929 8        48.040               
G21  20816062.983 9 109389143.578 9      2015.486 9        55.294               
G16  22898728.845 9 120333638.788 9     -2361.208 9        54.357               
G10  25174296.813 7 132291836.207 7      1301.466 7        47.247               
G08  20303162.726 9 106693837.158 9      -280.010 9        59.356               
> 2022 06 08 00 05 56.0000000  0  7                                             
G01  23179034.213 8 121806647.896 8      4079.000 8        50.618               
G09  24996930.106 8 131359771.706 8     -2556.312 8        48.512               
G04  25632942.330 7 134702021.445 7     -2665.111 7        47.422               
G21  20815684.419 9 109387136.830 9      1985.235 9        56.310               
G16  22899179.600 9 120336005.708 9     -2378.921 9        54.053               
G10  25174050.060 7 132290535.170 7      1299.576 7        46.861               
G08  20303214.242 9 106694129.305 9      -315.379 9        59.164               
> 2022 06 08 00 05 57.0000000  0  7                                             
G01  23178259.046 7 121802577.055 7      4068.763 7        47.992               
G09  24997417.171 7 131362327.028 7     -2556.839 7        47.548               
G04  25633448.166 8 134704682.379 8     -2659.764 8        48.468               
G21  20815304.917 9 109385162.248 9      1970.576 9        55.023               
G16  22899633.437 8 120338393.770 8     -2392.313 8        52.598               
G10  25173806.157 8 132289240.806 8      1295.011 8        48.070               
G08  20303287.514 9 106694459.375 9      -335.422 9        57.497               
> 2022 06 08 00 05 58.0000000  0  7                                             
G01  23177484.799 7 121798508.587 7      4070.239 7        47.577               
G09  24997906.756 7 131364881.908 7     -2550.922 7        46.636               
G04  25633955.593 7 134707342.356 7     -2657.457 7        47.528               
G21  20814934.197 9 109383193.673 9      1967.864 9        55.051               
G16  22900088.713 8 120340786.810 8     -2397.607 8        50.132               
G10  25173557.527 7 132287949.407 7      1287.548 7        47.113               
G08  20303341.621 9 106694796.100 9      -337.237 9        56.846               
> 2022 06 08 00 05 59.0000000  0  7                                             
G01  23176710.748 8 121794437.270 8      4074.351 8        49.182               
G09  24998389.648 8 131367427.000 8     -2538.886 8        48.181               
G04  25634459.803 7 134709995.970 7     -2648.789 7        46.946               
G21  20814555.883 9 109381225.778 9      1966.141 9        55.168               
G16  22900545.758 8 120343189.206 8     -2406.916 8        51.902               
G10  25173315.652 7 132286669.309 7      1274.101 7        46.904               
G08  20303411.418 9 106695131.873 9      -336.854 9        58.083               
> 2022 06 08 00 06 00.0000000  0  7                                             
G01  23175936.716 8 121790367.999 8      4065.280 8        52.091               
G09  24998870.593 8 131369968.829 8     -2543.919 8        49.063               
G04  25634963.674 8 134712646.940 8     -2651.923 8        48.414               
G21  20814186.387 9 109379264.869 9      1953.242 9        57.082               
G16  22901003.973 9 120345600.050 9     -2415.056 9        54.940               
G10  25173073.723 8 132285395.722 8      1273.071 8        48.813               
G08  20303472.476 9 106695474.746 9      -351.280 9        58.604               
> 2022 06 08 00 06 01.0000000  0  7                                             
G01  23175163.577 8 121786304.208 8      4060.359 8        52.354               
G09  24999355.254 8 131372513.818 8     -2550.753 8        50.383               
G04  25635469.582 7 134715298.822 7     -2655.869 7        47.156               
G21  20813811.817 9 109377314.529 9      1946.267 9        54.761               
G16  22901464.101 8 120348016.213 8     -2417.319 8        52.963               
G10  25172829.230 8 132284122.835 8      1276.296 8        48.793               
G08  20303543.523 9 106695830.115 9      -361.494 9        56.802               
> 2022 06 08 00 06 02.0000000  0  7                                             
G01  23174390.652 8 121782245.822 8      4056.359 8        51.625               
G09  24999844.071 8 131375066.542 8     -2553.664 8        50.015               
G04  25635974.132 7 134717954.639 7     -2656.969 7        46.014               
G21  20813444.376 8 109375371.449 8      1940.209 8        51.798               
G16  22901922.307 9 120350430.710 9     -2415.473 9        54.897               
G10  25172588.401 7 132282844.316 7      1278.093 7        47.553               
G08  20303611.238 9 106696194.936 9      -367.634 9        56.730               
> 2022 06 08 00 06 03.0000000  0  7                                             
G01  23173618.496 8 121778190.329 8      4053.872 8        51.583               
G09  25000329.652 7 131377621.491 7     -2553.691 7        47.842               
G04  25636479.566 8 134720611.257 8     -2656.478 8        48.567               
G21  20813075.014 8 109373433.584 8      1929.857 8        53.924               
G16  22902381.059 8 120352847.008 8     -2420.690 8        53.291               
G10  25172342.157 7 132281565.494 7      1280.366 7        47.218               
G08  20303681.267 9 106696565.805 9      -378.949 9        56.187               
> 2022 06 08 00 06 04.0000000  0  7                                             
G01  23172848.279 8 121774144.122 8      4045.160 8        50.828               
G09  25000814.144 8 131380179.759 8     -2558.955 8        48.904               
G04  25636986.099 8 134723268.267 8     -2657.273 8        49.217               
G21  20812708.440 9 109371514.759 9      1913.619 9        56.717               
G16  22902844.268 8 120355275.406 8     -2430.564 8        51.866               
G10  25172100.362 7 132280290.453 7      1274.103 7        47.408               
G08  20303757.728 9 106696958.903 9      -399.318 9        57.033               
> 2022 06 08 00 06 05.0000000  0  7                                             
G01  23172079.080 8 121770100.718 8      4040.615 8        50.497               
G09  25001301.057 8 131382739.578 8     -2562.537 8        49.762               
G04  25637490.952 8 134725925.638 8     -2658.464 8        48.080               
G21  20812346.735 9 109369601.370 9      1915.261 9        56.788               
G16  22903306.969 8 120357706.431 8     -2429.076 8        51.772               
G10  25171860.184 7 132279015.951 7      1277.365 7        46.765               
G08  20303832.171 9 106697358.186 9      -397.472 9        59.735               
> 2022 06 08 00 06 06.0000000  0  7                                             
G01  23171309.425 8 121766055.727 8      4041.709 8        50.120               
G09  25001791.052 8 131385303.575 8     -2565.773 8        49.310               
G04  25637997.200 8 134728586.102 8     -2659.731 8        49.081               
G21  20811977.919 9 109367681.267 9      1922.447 9        56.385               
G16  22903768.758 8 120360127.679 8     -2417.341 8        52.421               
G10  25171613.226 7 132277734.472 7      1284.202 7        47.838               
G08  20303907.712 9 106697749.742 9      -388.176 9        58.918               
> 2022 06 08 00 06 07.0000000  0  7                                             
G01  23170540.200 8 121762009.532 8      4046.912 8        51.449               
G09  25002280.539 8 131387869.368 8     -2566.650 8        50.297               
G04  25638503.572 7 134731247.938 7     -2662.658 7        46.892               
G21  20811616.750 9 109365757.073 9      1926.598 9        55.378               
G16  22904228.912 8 120362543.551 8     -2415.252 8        52.616               
G10  25171371.207 7 132276449.653 7      1289.361 7        46.500               
G08  20303979.617 9 106698136.303 9      -383.737 9        58.508               
> 2022 06 08 00 06 08.0000000  0  7                                             
G01  23169769.339 8 121757955.711 8      4065.259 8        49.832               
G09  25002765.012 8 131390432.574 8     -2559.850 8        49.537               
G04  25639010.659 7 134733909.208 7     -2660.852 7        47.875               
G21  20811242.573 9 109363817.407 9      1958.754 9        54.281               
G16  22904685.966 8 120364948.829 8     -2392.587 8        52.738               
G10  25171126.429 7 132275162.007 7      1290.403 7        45.706               
G08  20304052.281 9 106698504.220 9      -344.844 9        57.370               
> 2022 06 08 00 06 09.0000000  0  7                                             
G01  23168995.056 8 121753891.958 8      4055.118 8        50.170               
G09  25003252.649 7 131392992.815 7     -2565.307 7        47.797               
G04  25639517.148 7 134736572.120 7     -2677.861 7        45.070               
G21  20810873.363 9 109361854.036 9      1957.982 9        54.281               
G16  22905140.331 8 120367337.486 8     -2389.183 8        53.886               
G10  25170878.317 7 132273869.220 7      1294.573 7        45.584               
G08  20304109.328 9 106698840.872 9      -329.876 9        55.179               
> 2022 06 08 00 06 10.0000000  0  7                                             
G01  23168229.208 8 121749868.844 8      3992.834 8        51.039               
G09  25003746.880 8 131395573.883 8     -2593.560 8        48.629               
G04  25640032.097 7 134739275.832 7     -2733.847 7        46.427               
G21  20810500.490 9 109359914.334 9      1919.617 9        55.277               
G16  22905597.152 8 120369731.398 8     -2397.172 8        53.114               
G10  25170633.708 7 132272569.542 7      1306.441 7        45.671               
G08  20304181.689 9 106699157.049 9      -303.214 9        56.675               
> 2022 06 08 00 06 11.0000000  0  7                                             
G01  23167474.349 8 121745906.080 8      3938.748 8        50.004               
G09  25004242.325 8 131398186.720 8     -2625.654 8        49.593               
G04  25640557.983 8 134742038.501 8     -2786.966 8        50.190               
G21  20810141.698 9 109358012.808 9      1884.763 9        55.960               
G16  22906054.456 9 120372134.633 9     -2405.811 9        54.049               
G10  25170383.238 7 132271259.273 7      1312.639 7        47.718               
G08  20304229.622 9 106699450.051 9      -285.860 9        57.925               
> 2022 06 08 00 06 12.0000000  0  7                                             
G01  23166728.576 8 121741991.843 8      3883.867 8        50.389               
G09  25004742.452 8 131400830.405 8     -2667.070 8        49.025               
G04  25641091.704 8 134744848.821 8     -2844.125 8        48.315               
G21  20809786.087 8 109356143.552 8      1848.646 8        53.838               
G16  22906511.698 8 120374541.105 8     -2407.558 8        53.380               
G10  25170129.677 7 132269934.573 7      1339.403 7        46.048               
G08  20304284.829 9 106699731.838 9      -277.698 9        58.612               
> 2022 06 08 00 06 13.0000000  0  7                                             
G01  23166000.003 8 121738147.720 8      3813.594 8        50.204               
G09  25005259.984 8 131403525.762 8     -2714.640 8        50.459               
G04  25641640.658 7 134747728.873 7     -2910.044 7        47.149               
G21  20809435.211 9 109354322.161 9      1802.024 9        55.037               
G16  22906970.083 8 120376946.108 8     -2404.699 8        50.492               
G10  25169874.534 7 132268580.730 7      1365.635 7        46.224               
G08  20304341.331 9 106700006.031 9      -269.295 9        57.489               
> 2022 06 08 00 06 14.0000000  0  7                                             
G01  23165274.636 8 121734335.281 8      3822.103 8        50.936               
G09  25005774.111 8 131406246.368 8     -2717.573 8        49.072               
G04  25642194.660 7 134750644.806 7     -2915.221 7        46.846               
G21  20809095.788 9 109352516.087 9      1826.045 9        55.622               
G16  22907426.109 8 120379343.983 8     -2384.468 8        52.251               
G10  25169613.601 7 132267209.986 7      1372.284 7        47.874               
G08  20304383.868 9 106700264.861 9      -234.981 9        59.884               
> 2022 06 08 00 06 15.0000000  0  7                                             
G01  23164547.412 8 121730502.988 8      3833.654 8        48.222               
G09  25006293.769 8 131408960.122 8     -2713.072 8        50.173               
G04  25642749.315 7 134753560.042 7     -2915.822 7        47.555               
G21  20808743.751 9 109350668.826 9      1855.007 9        55.289               
G16  22907877.222 9 120381714.602 9     -2364.673 9        54.261               
G10  25169348.872 7 132265831.507 7      1380.841 7        47.874               
G08  20304424.833 9 106700473.839 9      -198.808 9        57.827               
> 2022 06 08 00 06 16.0000000  0  7                                             
G01  23163815.720 8 121726665.687 8      3837.905 8        50.680               
G09  25006807.191 7 131411671.898 7     -2713.436 7        47.619               
G04  25643304.326 8 134756474.719 8     -2914.881 8        48.524               
G21  20808386.263 9 109348811.651 9      1858.366 9        56.878               
G16  22908327.217 9 120384078.848 9     -2364.697 9        54.675               
G10  25169086.099 8 132264451.694 8      1380.377 8        48.582               
G08  20304466.441 9 106700670.648 9      -194.495 9        57.494               
> 2022 06 08 00 06 17.0000000  0  7                                             
G01  23163082.974 8 121722826.297 8      3839.241 8        50.127               
G09  25007323.677 8 131414381.112 8     -2708.590 8        48.693               
G04  25643859.115 8 134759388.447 8     -2913.356 8        48.437               
G21  20808037.433 9 109346950.811 9      1862.033 9        57.004               
G16  22908777.025 8 120386442.454 8     -2363.954 8        52.023               
G10  25168826.310 8 132263073.687 8      1376.248 8        48.434               
G08  20304500.579 9 106700861.641 9      -189.053 9        58.525               
> 2022 06 08 00 06 18.0000000  0  7                                             
G01  23162352.444 8 121718989.246 8      3830.567 8        50.383               
G09  25007841.039 7 131417090.033 7     -2711.350 7        47.446               
G04  25644413.323 7 134762301.702 7     -2914.930 7        47.438               
G21  20807682.536 9 109345095.206 9      1841.195 9        57.164               
G16  22909227.342 8 120388810.506 8     -2376.288 8        49.916               
G10  25168564.860 8 132261698.291 8      1370.228 8        48.082               
G08  20304534.620 9 106701057.825 9      -212.924 9        58.934               
> 2022 06 08 00 06 19.0000000  0  7                                             
G01  23161624.942 8 121715166.907 8      3817.835 8        50.566               
G09  25008354.702 8 131419804.032 8     -2715.992 8        48.929               
G04  25644967.691 7 134765215.562 7     -2914.591 7        47.401               
G21  20807332.482 9 109343269.711 9      1819.120 9        57.511               
G16  22909681.921 8 120391198.169 8     -2390.280 8        51.561               
G10  25168301.184 8 132260328.931 8      1368.598 8        49.674               
G08  20304580.302 9 106701289.296 9      -239.501 9        59.284               
> 2022 06 08 00 06 20.0000000  0  7                                             
G01  23160896.985 8 121711349.301 8      3817.328 8        51.585               
G09  25008873.556 8 131422519.754 8     -2716.651 8        49.455               
G04  25645523.007 7 134768129.514 7     -2914.216 7        47.320               
G21  20806992.542 9 109341454.034 9      1812.282 9        56.984               
G16  22910137.036 8 120393592.034 8     -2397.056 8        52.751               
G10  25168041.199 8 132258961.604 8      1366.433 8        48.880               
G08  20304633.614 9 106701532.121 9      -246.189 9        59.417               
> 2022 06 08 00 06 21.0000000  0  7                                             
G01  23160178.069 8 121707532.787 8      3817.148 8        50.304               
G09  25009387.112 7 131425236.015 7     -2717.862 7        47.861               
G04  25646076.518 7 134771043.367 7     -2910.392 7        47.447               
G21  20806643.515 9 109339640.774 9      1817.986 9        55.301               
G16  22910592.616 8 120395987.171 8     -2392.038 8        52.346               
G10  25167783.519 8 132257594.804 8      1368.336 8        49.074               
G08  20304671.809 9 106701777.601 9      -240.308 9        58.605               
> 2022 06 08 00 06 22.0000000  0  7                                             
G01  23159442.205 8 121703711.440 8      3824.499 8        50.528               
G09  25009907.940 8 131427951.255 8     -2716.307 8        48.340               
G04  25646631.002 8 134773956.974 8     -2914.094 8        49.105               
G21  20806293.443 9 109337817.833 9      1826.846 9        57.574               
G16  22911046.909 8 120398375.173 8     -2385.261 8        53.095               
G10  25167522.676 8 132256225.637 8      1369.561 8        48.728               
G08  20304715.624 9 106702011.770 9      -231.528 9        58.463               
> 2022 06 08 00 06 23.0000000  0  7                                             
G01  23158718.170 8 121699886.254 8      3827.284 8        49.617               
G09  25010421.576 8 131430670.753 8     -2720.108 8        48.909               
G04  25647186.139 7 134776871.926 7     -2913.567 7        47.642               
G21  20805950.251 9 109335986.490 9      1834.370 9        57.107               
G16  22911499.130 8 120400751.814 8     -2371.794 8        51.621               
G10  25167257.892 8 132254848.360 8      1382.112 8        48.514               
G08  20304764.371 9 106702239.567 9      -227.694 9        57.286               
> 2022 06 08 00 06 24.0000000  0  7                                             
G01  23157987.917 7 121696059.114 7      3827.235 7        47.914               
G09  25010943.593 7 131433392.850 7     -2719.476 7        47.576               
G04  25647741.258 8 134779787.461 8     -2916.892 8        48.041               
G21  20805602.314 9 109334151.236 9      1835.091 9        56.932               
G16  22911949.938 9 120403122.431 9     -2370.815 9        54.856               
G10  25166995.638 8 132253466.670 8      1380.816 8        49.033               
G08  20304805.684 9 106702464.869 9      -225.089 9        56.293               
> 2022 06 08 00 06 25.0000000  0  7                                             
G01  23157262.506 8 121692231.397 8      3828.220 8        49.696               
G09  25011458.131 8 131436113.920 8     -2719.355 8        49.497               
G04  25648294.582 7 134782702.540 7     -2916.212 7        47.534               
G21  20805247.248 9 109332315.043 9      1838.343 9        56.850               
G16  22912401.372 9 120405493.144 9     -2371.011 9        54.349               
G10  25166735.259 8 132252086.059 8      1378.865 8        48.563               
G08  20304841.770 9 106702688.133 9      -219.850 9        59.407               
> 2022 06 08 00 06 26.0000000  0  7                                             
G01  23156531.011 8 121688398.543 8      3837.122 8        51.049               
G09  25011974.073 7 131438820.583 7     -2700.512 7        47.108               
G04  25648848.477 7 134785612.690 7     -2905.026 7        47.958               
G21  20804900.178 9 109330471.125 9      1849.709 9        57.373               
G16  22912853.718 9 120407871.658 9     -2385.562 9        54.850               
G10  25166475.202 7 132250719.563 7      1357.551 7        46.552               
G08  20304886.774 9 106702893.980 9      -192.797 9        59.374               
> 2022 06 08 00 06 27.0000000  0  7                                             
G01  23155801.427 8 121684559.628 8      3838.982 8        52.285               
G09  25012487.307 8 131441513.222 8     -2691.351 8        48.566               
G04  25649402.211 7 134788517.063 7     -2902.655 7        46.959               
G21  20804548.801 9 109328619.089 9      1853.344 9        55.092               
G16  22913307.233 9 120410257.066 9     -2384.779 9        54.329               
G10  25166214.985 8 132249366.345 8      1356.313 8        49.318               
G08  20304929.302 9 106703083.920 9      -187.302 9        57.799               
> 2022 06 08 00 06 28.0000000  0  7                                             
G01  23155067.556 8 121680709.398 8      3869.963 8        51.234               
G09  25012996.735 8 131444200.344 8     -2677.840 8        48.763               
G04  25649951.862 7 134791409.072 7     -2868.500 7        46.653               
G21  20804191.510 9 109326762.060 9      1860.567 9        55.416               
G16  22913760.901 8 120412641.559 8     -2385.079 8        51.754               
G10  25165958.859 8 132248015.427 8      1345.204 8        49.701               
G08  20304960.358 9 106703282.441 9      -221.461 9        57.806               
> 2022 06 08 00 06 29.0000000  0  7                                             
G01  23154328.627 8 121676818.801 8      3904.008 8        50.207               
G09  25013508.244 7 131446869.934 7     -2675.318 7        47.532               
G04  25650493.267 8 134794251.053 8     -2829.584 8        49.692               
G21  20803840.902 9 109324897.314 9      1864.021 9        54.487               
G16  22914214.730 8 120415027.818 8     -2379.196 8        52.212               
G10  25165705.155 7 132246671.896 7      1350.694 7        47.725               
G08  20305002.279 9 106703535.997 9      -282.124 9        58.082               
> 2022 06 08 00 06 30.0000000  0  7                                             
G01  23153586.946 8 121672916.801 8      3900.104 8        50.817               
G09  25014016.314 7 131449561.294 7     -2709.080 7        46.575               
G04  25651031.651 8 134797079.473 8     -2832.817 8        48.860               
G21  20803485.094 9 109323039.097 9      1853.134 9        55.576               
G16  22914664.663 8 120417393.235 8     -2351.162 8        53.338               
G10  25165442.543 7 132245300.666 7      1389.414 7        47.046               
G08  20305071.807 9 106703844.524 9      -328.368 9        57.982               
> 2022 06 08 00 06 31.0000000  0  7                                             
G01  23152843.765 8 121669013.880 8      3908.442 8        51.434               
G09  25014534.757 7 131452268.821 7     -2701.519 7        46.655               
G04  25651568.901 7 134799906.767 7     -2818.992 7        47.671               
G21  20803130.251 9 109321186.516 9      1853.967 9        54.400               
G16  22915113.318 9 120419745.603 9     -2356.631 9        54.494               
G10  25165176.866 7 132243911.358 7      1381.114 7        47.539               
G08  20305129.140 9 106704179.395 9      -338.153 9        56.089               
> 2022 06 08 00 06 32.0000000  0  7                                             
G01  23152096.339 8 121665084.987 8      3949.768 8        48.272               
G09  25015041.156 8 131454937.115 8     -2638.110 8        50.356               
G04  25652101.202 8 134802699.732 8     -2768.364 8        48.840               
G21  20802780.456 8 109319322.203 8      1873.528 8        53.703               
G16  22915564.582 8 120422122.704 8     -2396.147 8        52.279               
G10  25164921.732 8 132242558.783 8      1322.729 8        48.216               
G08  20305196.596 9 106704512.700 9      -330.589 9        56.218               
> 2022 06 08 00 06 33.0000000  0  7                                             
G01  23151339.720 8 121661109.574 8      3998.347 8        50.757               
G09  25015535.905 8 131457544.992 8     -2581.881 8        48.070               
G04  25652620.404 8 134805432.191 8     -2699.525 8        48.871               
G21  20802417.518 9 109317438.976 9      1890.488 9        54.719               
G16  22916023.861 8 120424535.703 8     -2425.650 8        51.189               
G10  25164675.336 8 132241260.479 8      1278.314 8        49.399               
G08  20305259.772 9 106704855.992 9      -363.164 9        57.446               
> 2022 06 08 00 06 34.0000000  0  7                                             
G01  23150573.443 8 121657081.831 8      4043.057 8        50.716               
G09  25016024.810 8 131460106.123 8     -2547.786 8        49.598               
G04  25653128.519 7 134808096.794 7     -2640.902 7        47.841               
G21  20802058.529 8 109315541.808 8      1901.045 8        52.877               
G16  22916488.062 8 120426972.489 8     -2443.147 8        51.767               
G10  25164432.764 8 132239999.500 8      1251.879 8        49.849               
G08  20305332.749 9 106705243.103 9      -401.671 9        55.960               
> 2022 06 08 00 06 35.0000000  0  7                                             
G01  23149802.921 8 121653036.385 8      4046.181 8        50.919               
G09  25016511.134 8 131462652.230 8     -2544.377 8        48.372               
G04  25653631.237 8 134810739.666 8     -2642.081 8        48.625               
G21  20801697.548 9 109313638.178 9      1908.291 9        55.331               
G16  22916953.738 8 120429415.071 8     -2440.179 8        53.131               
G10  25164197.688 8 132238749.911 8      1248.428 8        48.708               
G08  20305409.273 9 106705641.704 9      -394.141 9        56.836               
> 2022 06 08 00 06 36.0000000  0  7                                             
G01  23149032.061 8 121648988.462 8      4051.019 8        49.666               
G09  25016994.491 8 131465196.999 8     -2544.498 8        49.225               
G04  25654133.231 8 134813381.897 8     -2641.021 8        48.651               
G21  20801330.653 9 109311730.011 9      1909.645 9        56.729               
G16  22917417.144 8 120431854.855 8     -2439.199 8        53.357               
G10  25163956.858 8 132237500.277 8      1247.357 8        48.832               
G08  20305484.278 9 106706034.523 9      -390.989 9        57.478               
> 2022 06 08 00 06 37.0000000  0  7                                             
G01  23148260.798 8 121644937.114 8      4057.960 8        48.086               
G09  25017474.095 8 131467739.562 8     -2537.845 8        48.973               
G04  25654636.137 8 134816023.151 8     -2640.599 8        49.264               
G21  20800971.485 9 109309815.640 9      1924.230 9        55.734               
G16  22917881.480 8 120434291.313 8     -2431.252 8        53.993               
G10  25163721.103 7 132236250.936 7      1253.823 7        47.819               
G08  20305557.416 9 106706419.414 9      -371.891 9        58.783               
> 2022 06 08 00 06 38.0000000  0  7                                             
G01  23147489.053 8 121640877.503 8      4060.377 8        49.765               
G09  25017959.757 8 131470276.948 8     -2536.371 8        49.780               
G04  25655138.703 7 134818662.400 7     -2638.073 7        47.362               
G21  20800599.372 9 109307886.037 9      1931.648 9        55.442               
G16  22918344.154 8 120436719.977 8     -2427.245 8        50.960               
G10  25163484.071 7 132235001.828 7      1245.361 7        47.338               
G08  20305625.282 9 106706785.320 9      -363.200 9        57.664               
> 2022 06 08 00 06 39.0000000  0  7                                             
G01  23146716.360 8 121636815.567 8      4063.230 8        51.258               
G09  25018444.660 8 131472813.110 8     -2537.450 8        50.435               
G04  25655640.457 7 134821301.084 7     -2636.701 7        46.898               
G21  20800235.880 8 109305952.132 8      1938.241 8        53.833               
G16  22918805.711 9 120439145.956 9     -2422.355 9        54.665               
G10  25163243.893 7 132233752.646 7      1251.133 7        46.911               
G08  20305697.214 9 106707145.709 9      -354.793 9        58.588               
> 2022 06 08 00 06 40.0000000  0  7                                             
G01  23145942.301 8 121632745.019 8      4073.832 8        48.864               
G09  25018926.570 8 131475346.232 8     -2530.573 8        48.508               
G04  25656143.344 8 134823939.074 8     -2637.046 8        48.606               
G21  20799860.354 9 109304001.044 9      1957.911 9        54.569               
G16  22919265.159 8 120441560.523 8     -2411.139 8        53.845               
G10  25163008.773 7 132232500.536 7      1250.702 7        47.220               
G08  20305753.814 9 106707485.491 9      -332.451 9        58.713               
> 2022 06 08 00 06 41.0000000  0  7                                             
G01  23145167.107 8 121628671.334 8      4074.572 8        50.334               
G09  25019405.531 8 131477878.356 8     -2535.630 8        48.584               
G04  25656644.588 7 134826576.747 7     -2635.121 7        46.904               
G21  20799492.037 9 109302043.750 9      1954.152 9        54.642               
G16  22919723.401 9 120443970.655 9     -2411.739 9        54.252               
G10  25162767.148 7 132231247.381 7      1255.849 7        46.447               
G08  20305829.865 9 106707817.671 9      -334.449 9        58.831               
> 2022 06 08 00 06 42.0000000  0  7                                             
G01  23144392.333 8 121624605.456 8      4054.995 8        50.511               
G09  25019887.932 8 131480415.166 8     -2540.177 8        50.548               
G04  25657146.234 7 134829215.808 7     -2642.247 7        46.249               
G21  20799118.459 9 109300101.293 9      1927.829 9        55.728               
G16  22920183.457 8 120446388.008 8     -2426.847 8        52.543               
G10  25162532.126 7 132229994.794 7      1250.106 7        47.366               
G08  20305887.037 9 106708167.634 9      -368.910 9        59.254               
> 2022 06 08 00 06 43.0000000  0  7                                             
G01  23143620.695 8 121620550.310 8      4054.011 8        49.939               
G09  25020374.702 8 131482958.368 8     -2546.047 8        49.318               
G04  25657649.873 8 134831856.845 8     -2641.762 8        48.532               
G21  20798755.199 8 109298179.136 8      1921.073 8        53.802               
G16  22920644.656 8 120448815.369 8     -2427.883 8        53.054               
G10  25162291.591 7 132228742.932 7      1250.314 7        47.145               
G08  20305964.365 9 106708541.969 9      -376.130 9        56.134               
> 2022 06 08 00 06 44.0000000  0  7                                             
G01  23142849.388 8 121616496.292 8      4052.832 8        48.426               
G09  25020859.489 8 131485502.153 8     -2545.228 8        49.974               
G04  25658152.055 7 134834497.871 7     -2641.973 7        47.917               
G21  20798389.947 9 109296259.302 9      1920.848 9        54.948               
G16  22921107.446 8 120451243.686 8     -2429.769 8        52.228               
G10  25162052.834 7 132227491.482 7      1249.742 7        46.742               
G08  20306030.552 9 106708918.775 9      -377.493 9        58.838               
> 2022 06 08 00 06 45.0000000  0  7                                             
G01  23142078.250 8 121612441.157 8      4057.262 8        49.460               
G09  25021341.184 8 131488045.488 8     -2543.114 8        48.179               
G04  25658653.817 7 134837138.603 7     -2640.922 7        47.250               
G21  20798022.167 9 109294337.416 9      1924.249 9        55.067               
G16  22921567.359 8 120453670.409 8     -2426.998 8        51.769               
G10  25161817.231 7 132226239.946 7      1248.967 7        46.666               
G08  20306105.879 9 106709292.825 9      -371.651 9        55.735               
> 2022 06 08 00 06 46.0000000  0  7                                             
G01  23141306.496 8 121608384.869 8      4058.684 8        48.930               
G09  25021823.156 7 131490588.338 7     -2545.110 7        46.971               
G04  25659157.098 7 134839779.022 7     -2638.591 7        46.179               
G21  20797659.149 9 109292413.432 9      1923.420 9        54.936               
G16  22922029.497 9 120456095.523 9     -2424.222 9        55.128               
G10  25161575.847 7 132224988.348 7      1251.913 7        46.002               
G08  20306172.485 9 106709664.057 9      -371.852 9        57.705               
> 2022 06 08 00 06 47.0000000  0  7                                             
G01  23140534.313 8 121604328.540 8      4056.550 8        49.191               
G09  25022309.051 8 131493130.791 8     -2541.667 8        48.602               
G04  25659658.726 7 134842419.006 7     -2639.074 7        46.108               
G21  20797288.840 9 109290489.756 9      1924.204 9        56.946               
G16  22922491.679 9 120458520.898 9     -2424.830 9        55.490               
G10  25161341.066 7 132223737.505 7      1249.097 7        47.512               
G08  20306247.562 9 106710035.237 9      -370.195 9        58.096               
> 2022 06 08 00 06 48.0000000  0  7                                             
G01  23139762.594 8 121600271.122 8      4057.656 8        49.471               
G09  25022794.356 8 131495670.109 8     -2539.096 8        48.859               
G04  25660161.712 7 134845057.091 7     -2636.367 7        45.809               
G21  20796928.002 9 109288565.654 9      1924.919 9        55.311               
G16  22922954.844 8 120460948.556 8     -2429.666 8        52.923               
G10  25161101.138 7 132222490.217 7      1245.887 7        45.316               
G08  20306314.115 9 106710404.841 9      -368.143 9        57.216               
> 2022 06 08 00 06 49.0000000  0  7                                             
G01  23138991.662 8 121596225.055 8      4023.419 8        49.871               
G09  25023278.356 8 131498218.443 8     -2569.360 8        48.552               
G04  25660666.727 7 134847709.789 7     -2684.265 7        47.311               
G21  20796557.220 9 109286644.215 9      1910.670 9        56.176               
G16  22923415.400 9 120463371.633 9     -2416.926 9        54.062               
G10  25160863.543 7 132221236.373 7      1265.286 7        46.541               
G08  20306383.742 9 106710762.674 9      -343.225 9        58.531               
> 2022 06 08 00 06 50.0000000  0  7                                             
G01  23138232.166 8 121592237.120 8      3961.377 8        49.286               
G09  25023769.200 8 131500815.128 8     -2622.878 8        48.122               
G04  25661183.133 7 134850429.271 7     -2750.944 7        44.782               
G21  20796200.939 9 109284750.266 9      1879.600 9        55.147               
G16  22923874.062 9 120465779.938 9     -2398.358 9        54.284               
G10  25160619.809 7 132219948.842 7      1308.343 7        47.339               
G08  20306447.677 9 106711093.012 9      -323.253 9        59.004               
> 2022 06 08 00 06 51.0000000  0  7                                             
G01  23137483.633 8 121588302.422 8      3913.269 8        49.968               
G09  25024279.191 8 131503472.373 8     -2687.862 8        49.241               
G04  25661713.548 7 134853211.175 7     -2808.304 7        46.746               
G21  20795844.300 9 109282885.228 9      1852.674 9        57.700               
G16  22924327.248 8 120468160.571 8     -2361.731 8        52.514               
G10  25160361.870 7 132218611.805 7      1367.894 7        46.196               
G08  20306502.616 9 106711419.132 9      -334.847 9        56.101               
> 2022 06 08 00 06 52.0000000  0  7                                             
G01  23136742.712 8 121584407.100 8      3891.778 8        51.335               
G09  25024795.186 7 131506199.014 7     -2746.573 7        46.507               
G04  25662252.335 7 134856044.575 7     -2840.040 7        45.051               
G21  20795490.707 9 109281041.854 9      1842.580 9        56.896               
G16  22924771.257 9 120470495.612 9     -2319.319 9        54.019               
G10  25160095.988 7 132217208.682 7      1424.798 7        47.240               
G08  20306580.230 9 106711762.475 9      -348.707 9        59.466               
> 2022 06 08 00 06 53.0000000  0  7                                             
G01  23136001.683 8 121580507.500 8      3903.369 8        48.986               
G09  25025317.837 7 131508938.844 7     -2736.572 7        47.310               
G04  25662792.033 7 134858880.053 7     -2828.270 7        45.574               
G21  20795142.806 9 109279191.258 9      1853.675 9        55.674               
G16  22925209.888 8 120472810.686 8     -2314.154 8        51.072               
G10  25159827.890 8 132215786.843 8      1422.314 8        48.662               
G08  20306637.536 9 106712109.966 9      -347.799 9        59.185               
> 2022 06 08 00 06 54.0000000  0  7                                             
G01  23135258.403 8 121576606.084 8      3896.040 8        49.851               
G09  25025838.379 7 131511677.426 7     -2738.621 7        46.654               
G04  25663330.462 7 134861713.015 7     -2838.980 7        46.775               
G21  20794789.125 8 109277340.391 8      1846.814 8        53.979               
G16  22925651.119 8 120475126.064 8     -2317.413 8        51.293               
G10  25159557.353 7 132214366.112 7      1424.907 7        47.863               
G08  20306708.369 9 106712459.270 9      -349.934 9        56.860               
> 2022 06 08 00 06 55.0000000  0  7                                             
G01  23134519.376 8 121572718.117 8      3883.375 8        49.748               
G09  25026361.173 7 131514423.326 7     -2746.109 7        47.104               
G04  25663871.143 7 134864557.743 7     -2850.220 7        47.203               
G21  20794436.641 9 109275500.162 9      1833.936 9        55.880               
G16  22926092.046 8 120477444.735 8     -2321.571 8        52.494               
G10  25159286.280 7 132212943.458 7      1427.045 7        46.591               
G08  20306771.026 9 106712807.658 9      -350.687 9        58.007               
> 2022 06 08 00 06 56.0000000  0  7                                             
G01  23133780.680 8 121568836.765 8      3881.613 8        49.303               
G09  25026884.504 7 131517171.957 7     -2742.931 7        46.605               
G04  25664413.950 7 134867406.274 7     -2842.723 7        45.097               
G21  20794092.537 9 109273667.830 9      1835.565 9        57.275               
G16  22926533.786 8 120479767.598 8     -2323.918 8        53.926               
G10  25159013.429 7 132211521.664 7      1422.136 7        47.630               
G08  20306841.198 9 106713160.254 9      -348.832 9        58.778               
> 2022 06 08 00 06 57.0000000  0  7                                             
G01  23133040.581 8 121564943.410 8      3902.197 8        50.891               
G09  25027401.115 7 131519891.748 7     -2692.603 7        46.792               
G04  25664953.014 7 134870240.286 7     -2821.168 7        47.088               
G21  20793739.293 9 109271824.237 9      1849.493 9        55.049               
G16  22926979.609 8 120482108.793 8     -2366.155 8        53.689               
G10  25158748.637 8 132210128.450 8      1362.218 8        48.734               
G08  20306903.713 9 106713490.955 9      -311.715 9        60.102               
> 2022 06 08 00 06 58.0000000  0  7                                             
G01  23132297.846 8 121561044.398 8      3890.150 8        49.266               
G09  25027911.892 7 131522562.654 7     -2660.661 7        46.139               
G04  25665488.790 7 134873058.813 7     -2825.320 7        45.234               
G21  20793385.540 9 109269976.386 9      1842.307 9        55.169               
G16  22927433.813 8 120484495.539 8     -2403.479 8        53.720               
G10  25158496.970 8 132208791.572 8      1321.593 8        50.213               
G08  20306952.620 9 106713784.758 9      -275.508 9        57.360               
> 2022 06 08 00 06 59.0000000  0  7                                             
G01  23131562.571 8 121557179.310 8      3838.347 8        49.687               
G09  25028418.264 7 131525231.424 7     -2680.971 7        47.589               
G04  25666032.732 7 134875909.251 7     -2880.832 7        45.216               
G21  20793041.222 9 109268145.016 9      1822.765 9        55.100               
G16  22927892.672 9 120486905.336 9     -2412.808 9        54.218               
G10  25158243.891 8 132207471.830 8      1322.114 8        49.668               
G08  20307009.104 9 106714038.636 9      -228.834 9        57.705               
> 2022 06 08 00 07 00.0000000  0  7                                             
G01  23130831.576 8 121553343.756 8      3837.404 8        50.045               
G09  25028927.969 7 131527912.215 7     -2680.552 7        47.802               
G04  25666581.391 7 134878797.433 7     -2889.054 7        46.032               
G21  20792691.355 9 109266317.319 9      1831.801 9        56.487               
G16  22928351.316 8 120489313.730 8     -2404.892 8        51.463               
G10  25157992.116 8 132206147.767 8      1324.198 8        48.651               
G08  20307047.264 9 106714246.509 9      -198.233 9        56.563               
> 2022 06 08 00 07 01.0000000  0  7                                             
G01  23130103.539 8 121549509.938 8      3831.871 8        51.010               
G09  25029436.700 7 131530593.370 7     -2682.606 7        47.745               
G04  25667131.570 7 134881687.589 7     -2890.329 7        47.240               
G21  20792340.935 9 109264489.988 9      1823.335 9        57.078               
G16  22928810.130 8 120491722.397 8     -2410.470 8        52.334               
G10  25157741.003 8 132204824.142 8      1324.879 8        50.088               
G08  20307083.037 9 106714451.275 9      -209.317 9        58.153               
> 2022 06 08 00 07 02.0000000  0  7                                             
G01  23129372.124 8 121545678.798 8      3830.236 8        51.964               
G09  25029948.469 8 131533275.739 8     -2681.065 8        48.556               
G04  25667682.070 7 134884577.872 7     -2890.003 7        46.421               
G21  20791998.743 9 109262668.083 9      1821.958 9        57.710               
G16  22929269.694 8 120494134.114 8     -2410.076 8        52.059               
G10  25157488.808 8 132203501.428 8      1322.805 8        49.855               
G08  20307125.021 9 106714662.234 9      -210.881 9        57.532               
> 2022 06 08 00 07 03.0000000  0  7                                             
G01  23128643.845 8 121541847.233 8      3830.883 8        52.489               
G09  25030459.014 7 131535958.085 7     -2684.255 7        47.948               
G04  25668230.908 8 134887467.993 8     -2889.284 8        48.264               
G21  20791651.182 9 109260845.523 9      1824.124 9        55.893               
G16  22929728.490 8 120496545.184 8     -2407.898 8        51.568               
G10  25157237.391 8 132202178.723 8      1323.539 8        48.256               
G08  20307171.212 9 106714872.152 9      -208.431 9        59.099               
> 2022 06 08 00 07 04.0000000  0  7                                             
G01  23127914.423 9 121538013.849 9      3833.504 9        54.655               
G09  25030968.040 8 131538640.282 8     -2680.031 8        48.126               
G04  25668781.801 7 134890358.113 7     -2892.697 7        47.024               
G21  20791299.796 9 109259019.243 9      1827.742 9        55.226               
G16  22930187.349 8 120498953.243 8     -2407.728 8        51.211               
G10  25156988.395 8 132200855.002 8      1322.627 8        49.711               
G08  20307205.369 9 106715077.541 9      -204.780 9        59.305               
> 2022 06 08 00 07 05.0000000  0  7                                             
G01  23127183.946 8 121534179.659 8      3832.958 8        51.281               
G09  25031480.863 8 131541322.383 8     -2682.072 8        49.034               
G04  25669331.532 7 134893248.093 7     -2891.139 7        47.135               
G21  20790957.211 9 109257191.484 9      1828.700 9        56.848               
G16  22930645.341 8 120501360.054 8     -2407.258 8        51.667               
G10  25156734.762 8 132199531.059 8      1323.342 8        49.550               
G08  20307239.007 9 106715280.948 9      -203.107 9        58.027               
> 2022 06 08 00 07 06.0000000  0  7                                             
G01  23126455.935 8 121530344.837 8      3834.893 8        51.327               
G09  25031990.184 8 131544004.069 8     -2679.933 8        48.162               
G04  25669881.085 7 134896137.716 7     -2890.879 7        47.049               
G21  20790609.132 9 109255362.831 9      1829.362 9        57.631               
G16  22931102.967 8 120503766.393 8     -2406.117 8        53.474               
G10  25156478.690 8 132198207.465 8      1325.927 8        48.756               
G08  20307281.330 9 106715482.960 9      -201.426 9        57.871               
> 2022 06 08 00 07 07.0000000  0  7                                             
G01  23125726.405 8 121526507.366 8      3836.200 8        50.360               
G09  25032498.218 8 131546682.911 8     -2679.360 8        49.292               
G04  25670431.505 7 134899025.790 7     -2885.353 7        46.817               
G21  20790255.468 9 109253530.303 9      1834.274 9        56.028               
G16  22931560.825 8 120506172.170 8     -2403.190 8        51.257               
G10  25156232.071 8 132196885.831 8      1320.130 8        48.071               
G08  20307325.868 9 106715679.683 9      -194.351 9        58.653               
> 2022 06 08 00 07 08.0000000  0  7                                             
G01  23124994.401 8 121522668.480 8      3836.931 8        49.547               
G09  25033011.398 8 131549360.117 8     -2676.913 8        49.128               
G04  25670980.396 7 134901912.876 7     -2886.577 7        46.881               
G21  20789910.667 9 109251695.910 9      1835.348 9        54.163               
G16  22932018.665 8 120508577.849 8     -2406.032 8        52.118               
G10  25155980.502 8 132195565.546 8      1320.668 8        48.682               
G08  20307356.541 9 106715873.663 9      -195.229 9        55.656               
> 2022 06 08 00 07 09.0000000  0  7                                             
G01  23124265.541 8 121518830.086 8      3838.004 8        49.790               
G09  25033517.333 7 131552037.449 7     -2676.551 7        47.750               
G04  25671530.378 7 134904799.750 7     -2886.648 7        46.746               
G21  20789562.212 9 109249862.739 9      1832.676 9        55.605               
G16  22932476.371 8 120510984.252 8     -2407.355 8        51.278               
G10  25155726.172 7 132194245.810 7      1317.760 7        45.895               
G08  20307388.991 9 106716068.788 9      -195.482 9        56.761               
> 2022 06 08 00 07 10.0000000  0  7                                             
G01  23123532.089 8 121514991.192 8      3840.102 8        51.999               
G09  25034030.317 8 131554715.142 8     -2679.752 8        48.260               
G04  25672079.582 8 134907686.734 8     -2886.413 8        48.918               
G21  20789208.602 9 109248028.489 9      1837.791 9        57.332               
G16  22932933.728 8 120513389.304 8     -2400.776 8        52.202               
G10  25155476.578 7 132192925.494 7      1324.036 7        46.050               
G08  20307428.061 9 106716262.498 9      -189.376 9        56.259               
> 2022 06 08 00 07 11.0000000  0  7                                             
G01  23122799.022 8 121511148.868 8      3844.050 8        49.955               
G09  25034537.386 7 131557393.943 7     -2680.359 7        47.887               
G04  25672629.028 7 134910574.761 7     -2888.087 7        47.263               
G21  20788863.158 9 109246186.197 9      1843.066 9        56.665               
G16  22933389.094 8 120515786.696 8     -2395.796 8        53.163               
G10  25155225.044 7 132191601.137 7      1321.676 7        46.721               
G08  20307470.116 9 106716446.984 9      -183.000 9        56.921               
> 2022 06 08 00 07 12.0000000  0  7                                             
G01  23122072.592 8 121507307.493 8      3841.130 8        51.632               
G09  25035048.029 7 131560072.797 7     -2675.123 7        47.196               
G04  25673177.580 7 134913462.030 7     -2881.897 7        46.986               
G21  20788512.148 9 109244346.896 9      1835.193 9        54.164               
G16  22933845.183 8 120518186.221 8     -2405.939 8        51.389               
G10  25154970.026 8 132190277.986 8      1322.204 8        48.282               
G08  20307502.262 9 106716635.302 9      -197.280 9        57.131               
> 2022 06 08 00 07 13.0000000  0  7                                             
G01  23121336.666 8 121503442.649 8      3891.589 8        52.035               
G09  25035554.875 7 131562729.400 7     -2631.948 7        44.887               
G04  25673720.995 7 134916313.871 7     -2811.845 7        46.682               
G21  20788158.127 9 109242508.480 9      1842.571 9        54.869               
G16  22934305.104 8 120520602.028 8     -2426.405 8        53.582               
G10  25154724.202 8 132188974.879 8      1282.426 8        48.291               
G08  20307538.840 9 106716856.993 9      -249.046 9        57.057               
> 2022 06 08 00 07 14.0000000  0  7                                             
G01  23120591.536 8 121499528.157 8      3932.533 8        50.764               
G09  25036048.239 7 131565336.125 7     -2576.141 7        47.734               
G04  25674249.355 7 134919096.458 7     -2755.454 7        46.359               
G21  20787811.343 9 109240662.275 9      1846.631 9        54.022               
G16  22934770.101 8 120523048.856 8     -2469.311 8        52.473               
G10  25154485.436 7 132187714.948 7      1232.163 7        46.410               
G08  20307596.816 9 106717127.394 9      -287.522 9        58.091               
> 2022 06 08 00 07 15.0000000  0  7                                             
G01  23119839.733 8 121495580.613 8      3959.147 8        50.371               
G09  25036535.179 7 131567881.271 7     -2509.213 7        47.786               
G04  25674769.335 7 134921821.647 7     -2697.764 7        47.465               
G21  20787460.136 8 109238818.601 8      1838.527 8        53.893               
G16  22935246.096 8 120525550.720 8     -2534.845 8        52.787               
G10  25154255.337 7 132186519.879 7      1155.779 7        46.284               
G08  20307652.094 9 106717423.302 9      -302.534 9        57.317               
> 2022 06 08 00 07 16.0000000  0  7                                             
G01  23119087.608 8 121491615.705 8      3963.270 8        49.651               
G09  25037007.600 8 131570375.307 8     -2488.607 8        49.188               
G04  25675279.603 7 134924507.584 7     -2684.925 7        47.700               
G21  20787106.330 9 109236983.863 9      1829.739 9        54.591               
G16  22935735.225 8 120528105.831 8     -2562.035 8        52.883               
G10  25154041.874 8 132185383.391 8      1132.572 8        48.579               
G08  20307704.102 9 106717733.251 9      -316.732 9        57.723               
> 2022 06 08 00 07 17.0000000  0  7                                             
G01  23118333.356 8 121487658.859 8      3947.141 8        51.122               
G09  25037490.233 8 131572883.304 8     -2536.266 8        49.599               
G04  25675793.319 7 134927203.248 7     -2716.648 7        46.968               
G21  20786762.637 9 109235154.582 9      1832.924 9        55.443               
G16  22936217.769 8 120530652.356 8     -2518.926 8        52.838               
G10  25153821.915 8 132184234.094 8      1186.996 8        49.009               
G08  20307776.096 9 106718048.319 9      -309.354 9        57.126               
> 2022 06 08 00 07 18.0000000  0  7                                             
G01  23117586.395 8 121483727.268 8      3915.080 8        51.811               
G09  25037975.592 8 131575455.610 8     -2601.341 8        49.869               
G04  25676315.005 7 134929949.722 7     -2776.845 7        46.741               
G21  20786413.360 9 109233318.359 9      1835.319 9        55.012               
G16  22936689.877 8 120533135.271 8     -2457.287 8        52.894               
G10  25153590.591 7 132183013.673 7      1249.192 7        46.518               
G08  20307825.245 9 106718346.436 9      -284.649 9        56.558               
> 2022 06 08 00 07 19.0000000  0  7                                             
G01  23116846.725 8 121479835.094 8      3874.258 8        50.789               
G09  25038473.860 8 131578083.424 8     -2647.171 8        50.081               
G04  25676849.745 7 134932755.352 7     -2829.119 7        46.809               
G21  20786059.839 9 109231487.176 9      1826.450 9        56.210               
G16  22937154.231 9 120535576.084 9     -2430.712 9        54.476               
G10  25153346.277 8 132181739.973 8      1289.526 8        48.587               
G08  20307877.869 9 106718615.451 9      -256.408 9        57.512               
> 2022 06 08 00 07 20.0000000  0  7                                             
G01  23116106.715 8 121475960.964 8      3878.236 8        50.934               
G09  25038982.047 8 131580738.124 8     -2657.406 8        49.182               
G04  25677388.612 7 134935588.419 7     -2831.160 7        47.400               
G21  20785716.012 9 109229658.180 9      1834.684 9        54.826               
G16  22937614.439 8 120537995.929 8     -2410.201 8        52.230               
G10  25153101.320 7 132180440.214 7      1309.923 7        47.267               
G08  20307933.156 9 106718871.827 9      -261.092 9        55.764               
> 2022 06 08 00 07 21.0000000  0  7                                             
G01  23115366.607 8 121472062.685 8      3911.127 8        50.946               
G09  25039487.874 7 131583398.736 7     -2668.742 7        47.847               
G04  25677924.674 7 134938403.939 7     -2806.219 7        47.921               
G21  20785365.118 9 109227810.676 9      1860.122 9        55.365               
G16  22938070.662 8 120540389.657 8     -2374.109 8        53.727               
G10  25152852.118 7 132179121.713 7      1333.505 7        47.857               
G08  20307977.650 9 106719145.092 9      -283.185 9        58.301               
> 2022 06 08 00 07 22.0000000  0  7                                             
G01  23114620.450 8 121468145.916 8      3918.734 8        50.094               
G09  25039998.535 8 131586089.878 8     -2720.501 8        48.213               
G04  25678460.485 8 134941219.153 8     -2828.167 8        48.429               
G21  20785004.843 8 109225937.555 8      1885.782 8        53.771               
G16  22938514.037 8 120542728.806 8     -2302.717 8        51.101               
G10  25152588.050 8 132177754.851 8      1404.645 8        48.949               
G08  20308032.847 9 106719428.114 9      -281.449 9        56.725               
> 2022 06 08 00 07 23.0000000  0  7                                             
G01  23113873.248 8 121464225.964 8      3919.083 8        49.928               
G09  25040520.141 7 131588820.213 7     -2735.079 7        47.180               
G04  25678997.887 7 134944051.694 7     -2832.538 7        45.327               
G21  20784649.464 9 109224044.661 9      1894.221 9        54.609               
G16  22938951.435 8 120545013.051 8     -2278.268 8        50.471               
G10  25152318.800 7 132176335.327 7      1424.244 7        47.826               
G08  20308089.349 9 106719707.505 9      -280.387 9        58.067               
> 2022 06 08 00 07 24.0000000  0  7                                             
G01  23113128.333 8 121460307.106 8      3914.315 8        49.231               
G09  25041037.502 7 131591553.431 7     -2733.156 7        47.970               
G04  25679538.336 7 134946882.449 7     -2825.334 7        46.095               
G21  20784287.232 8 109222157.503 8      1875.756 8        53.130               
G16  22939385.277 8 120547298.171 8     -2293.902 8        52.877               
G10  25152050.166 7 132174914.247 7      1417.479 7        46.902               
G08  20308137.756 9 106719998.477 9      -308.526 9        56.105               
> 2022 06 08 00 07 25.0000000  0  7                                             
G01  23112384.750 8 121456396.099 8      3905.718 8        50.136               
G09  25041560.073 8 131594288.107 8     -2737.119 8        50.302               
G04  25680074.952 7 134949709.326 7     -2825.309 7        46.897               
G21  20783931.737 9 109220292.037 9      1851.615 9        55.972               
G16  22939823.648 8 120549598.231 8     -2307.251 8        53.832               
G10  25151780.361 7 132173499.163 7      1411.556 7        46.900               
G08  20308203.979 9 106720319.017 9      -338.122 9        57.985               
> 2022 06 08 00 07 26.0000000  0  7                                             
G01  23111642.497 8 121452499.609 8      3888.705 8        50.308               
G09  25042078.641 8 131597027.527 8     -2740.094 8        48.405               
G04  25680613.935 7 134952536.635 7     -2829.375 7        45.733               
G21  20783586.373 8 109218455.790 8      1826.747 8        53.982               
G16  22940265.129 8 120551916.856 8     -2322.972 8        53.269               
G10  25151510.199 7 132172089.945 7      1408.102 7        47.288               
G08  20308268.281 9 106720673.441 9      -363.737 9        58.868               
> 2022 06 08 00 07 27.0000000  0  7                                             
G01  23110903.140 8 121448616.667 8      3878.582 8        50.939               
G09  25042604.178 8 131599772.741 8     -2748.124 8        48.949               
G04  25681153.169 7 134955369.413 7     -2835.665 7        45.672               
G21  20783236.766 9 109216639.484 9      1811.358 9        55.834               
G16  22940709.175 8 120554246.570 8     -2332.174 8        53.827               
G10  25151242.218 7 132170682.846 7      1403.625 7        47.226               
G08  20308342.249 9 106721045.117 9      -375.688 9        60.257               
> 2022 06 08 00 07 28.0000000  0  7                                             
G01  23110164.345 8 121444736.028 8      3886.769 8        51.326               
G09  25043124.032 7 131602519.043 7     -2744.007 7        47.679               
G04  25681692.322 7 134958203.564 7     -2831.050 7        44.246               
G21  20782890.902 9 109214825.784 9      1818.020 9        55.813               
G16  22941153.113 9 120556577.311 9     -2327.204 9        54.289               
G10  25150976.103 7 132169275.977 7      1407.859 7        45.553               
G08  20308410.366 9 106721417.754 9      -369.789 9        59.823               
> 2022 06 08 00 07 29.0000000  0  7                                             
G01  23109421.815 8 121440833.236 8      3921.153 8        51.377               
G09  25043645.397 7 131605243.773 7     -2693.318 7        47.991               
G04  25682228.500 7 134961016.655 7     -2789.403 7        47.403               
G21  20782546.593 9 109212993.588 9      1843.100 9        56.489               
G16  22941596.997 8 120558911.027 8     -2350.907 8        53.546               
G10  25150712.491 7 132167884.131 7      1362.857 7        46.349               
G08  20308479.752 9 106721780.808 9      -353.127 9        59.135               
> 2022 06 08 00 07 30.0000000  0  7                                             
G01  23108671.048 8 121436893.664 8      3959.534 8        51.623               
G09  25044147.472 7 131607901.170 7     -2624.568 7        47.082               
G04  25682752.705 7 134963781.459 7     -2738.616 7        45.688               
G21  20782190.776 9 109211140.692 9      1864.985 9        56.314               
G16  22942049.468 8 120561289.188 8     -2396.968 8        53.616               
G10  25150457.848 8 132166557.442 8      1297.706 8        48.100               
G08  20308546.805 9 106722123.859 9      -337.072 9        60.512               
> 2022 06 08 00 07 31.0000000  0  7                                             
G01  23107912.535 8 121432902.766 8      4022.156 8        48.880               
G09  25044642.899 7 131610496.309 7     -2567.143 7        45.386               
G04  25683268.512 7 134966486.191 7     -2669.862 7        44.816               
G21  20781832.332 9 109209258.398 9      1901.611 9        55.317               
G16  22942507.120 8 120563696.102 8     -2411.611 8        52.703               
G10  25150215.053 7 132165283.199 7      1258.444 7        47.131               
G08  20308604.138 9 106722463.761 9      -347.644 9        57.219               
> 2022 06 08 00 07 32.0000000  0  7                                             
G01  23107142.881 8 121428852.968 8      4059.215 8        49.325               
G09  25045130.608 7 131613044.860 7     -2540.218 7        46.023               
G04  25683770.900 7 134969127.842 7     -2626.814 7        45.354               
G21  20781470.735 9 109207341.661 9      1922.531 9        55.207               
G16  22942966.282 8 120566109.656 8     -2415.324 8        51.421               
G10  25149980.924 7 132164038.950 7      1236.283 7        46.027               
G08  20308684.075 9 106722818.735 9      -358.219 9        58.405               
> 2022 06 08 00 07 33.0000000  0  7                                             
G01  23106370.528 8 121424794.444 8      4052.786 8        49.646               
G09  25045611.677 7 131615584.853 7     -2542.036 7        45.958               
G04  25684270.965 7 134971757.488 7     -2631.841 7        43.928               
G21  20781100.980 8 109205423.263 8      1909.322 8        53.019               
G16  22943426.294 8 120568527.875 8     -2425.724 8        51.284               
G10  25149743.132 7 132162802.123 7      1235.958 7        45.942               
G08  20308741.327 9 106723181.444 9      -372.708 9        56.867               
> 2022 06 08 00 07 34.0000000  0  7                                             
G01  23105600.775 8 121420749.083 8      4040.432 8        49.792               
G09  25046092.917 7 131618128.842 7     -2544.051 7        46.919               
G04  25684771.976 7 134974387.279 7     -2630.685 7        47.204               
G21  20780746.244 9 109203531.555 9      1884.155 9        54.027               
G16  22943888.530 8 120570963.206 8     -2440.971 8        51.552               
G10  25149511.540 7 132161571.011 7      1224.215 7        47.935               
G08  20308827.938 9 106723575.055 9      -404.016 9        57.445               
> 2022 06 08 00 07 35.0000000  0  7                                             
G01  23104831.040 8 121416708.836 8      4039.771 8        48.969               
G09  25046578.901 8 131620674.308 8     -2544.958 8        48.361               
G04  25685272.872 7 134977016.967 7     -2629.604 7        46.787               
G21  20780384.182 9 109201650.359 9      1879.690 9        54.921               
G16  22944352.963 8 120573405.121 8     -2444.070 8        52.988               
G10  25149274.061 8 132160342.341 8      1229.861 8        49.538               
G08  20308893.134 9 106723980.617 9      -406.793 9        58.981               
> 2022 06 08 00 07 36.0000000  0  7                                             
G01  23104062.261 8 121412670.068 8      4032.819 8        48.225               
G09  25047066.225 7 131623218.955 7     -2541.259 7        46.357               
G04  25685772.436 7 134979645.735 7     -2627.794 7        45.997               
G21  20780027.713 9 109199773.035 9      1870.904 9        54.972               
G16  22944817.013 8 120575850.521 8     -2451.351 8        52.155               
G10  25149043.997 8 132159116.228 8      1222.877 8        50.396               
G08  20308983.461 9 106724390.065 9      -414.876 9        56.574               
> 2022 06 08 00 07 37.0000000  0  7                                             
G01  23103293.929 8 121408634.370 8      4034.799 8        49.262               
G09  25047550.681 7 131625760.894 7     -2538.731 7        46.405               
G04  25686272.215 7 134982272.237 7     -2627.410 7        47.602               
G21  20779675.059 9 109197904.120 9      1867.429 9        54.910               
G16  22945285.119 8 120578304.860 8     -2456.322 8        50.882               
G10  25148809.493 8 132157896.521 8      1220.279 8        48.572               
G08  20309050.158 9 106724808.015 9      -418.079 9        57.273               
> 2022 06 08 00 07 38.0000000  0  7                                             
G01  23102525.096 8 121404596.338 8      4042.224 8        50.893               
G09  25048028.105 7 131628301.353 7     -2540.987 7        44.450               
G04  25686774.173 7 134984898.032 7     -2625.121 7        46.779               
G21  20779313.515 9 109196031.091 9      1884.176 9        55.416               
G16  22945753.823 8 120580756.971 8     -2444.281 8        53.075               
G10  25148578.536 7 132156677.137 7      1222.601 7        45.882               
G08  20309139.547 9 106725220.609 9      -398.143 9        57.967               
> 2022 06 08 00 07 39.0000000  0  7                                             
G01  23101755.728 8 121400545.334 8      4053.291 8        50.024               
G09  25048512.177 7 131630837.556 7     -2535.622 7        46.184               
G04  25687269.047 7 134987523.092 7     -2625.388 7        47.276               
G21  20778957.403 8 109194132.306 8      1903.823 8        53.145               
G16  22946217.900 8 120583192.286 8     -2432.450 8        53.280               
G10  25148345.917 7 132155453.079 7      1228.585 7        45.012               
G08  20309201.204 9 106725602.701 9      -376.289 9        59.386               
> 2022 06 08 00 07 40.0000000  0  7                                             
G01  23100984.241 8 121396491.051 8      4055.186 8        51.422               
G09  25048996.401 7 131633374.097 7     -2538.887 7        46.127               
G04  25687772.373 7 134990148.651 7     -2626.205 7        47.392               
G21  20778591.579 9 109192226.350 9      1908.051 9        55.584               
G16  22946679.760 9 120585621.179 9     -2423.559 9        54.881               
G10  25148110.484 8 132154226.127 8      1230.566 8        48.058               
G08  20309284.805 9 106725976.490 9      -371.050 9        60.344               
> 2022 06 08 00 07 41.0000000  0  7                                             
G01  23100212.827 8 121392435.617 8      4056.219 8        51.611               
G09  25049483.216 7 131635918.946 7     -2545.403 7        45.284               
G04  25688272.500 7 134992779.329 7     -2631.481 7        46.709               
G21  20778227.677 9 109190312.956 9      1914.717 9        54.942               
G16  22947139.218 8 120588035.915 8     -2410.798 8        52.125               
G10  25147877.543 7 132152987.292 7      1243.862 7        46.916               
G08  20309342.745 9 106726343.289 9      -364.972 9        57.851               
> 2022 06 08 00 07 42.0000000  0  7                                             
G01  23099440.233 8 121388380.309 8      4054.711 8        50.431               
G09  25049966.323 7 131638466.759 7     -2546.905 7        45.805               
G04  25688772.708 7 134995411.743 7     -2631.771 7        45.149               
G21  20777865.186 8 109188398.028 8      1913.992 8        53.922               
G16  22947597.299 8 120590446.265 8     -2410.136 8        52.683               
G10  25147638.858 8 132151744.779 8      1241.195 8        48.271               
G08  20309423.844 9 106726708.507 9      -366.211 9        56.537               
> 2022 06 08 00 07 43.0000000  0  7                                             
G01  23098668.488 8 121384326.241 8      4054.644 8        51.625               
G09  25050448.482 7 131641014.797 7     -2548.342 7        45.644               
G04  25689274.782 7 134998043.883 7     -2630.019 7        45.172               
G21  20777498.218 9 109186485.878 9      1908.958 9        54.871               
G16  22948056.649 8 120592858.275 8     -2415.058 8        52.761               
G10  25147405.613 8 132150503.251 8      1240.952 8        48.455               
G08  20309485.206 9 106727076.622 9      -372.756 9        55.313               
> 2022 06 08 00 07 44.0000000  0  7                                             
G01  23097898.333 8 121380281.239 8      4038.917 8        48.950               
G09  25050935.226 7 131643561.951 7     -2546.652 7        45.819               
G04  25689774.105 7 135000673.695 7     -2631.166 7        44.710               
G21  20777142.723 9 109184594.531 9      1872.835 9        55.961               
G16  22948519.269 8 120595287.240 8     -2444.655 8        51.757               
G10  25147167.598 8 132149270.637 8      1225.698 8        48.876               
G08  20309566.823 9 106727468.080 9      -412.496 9        58.026               
> 2022 06 08 00 07 45.0000000  0  7                                             
G01  23097131.350 8 121376246.074 8      4036.777 8        49.134               
G09  25051422.684 7 131646107.912 7     -2545.633 7        45.890               
G04  25690273.929 7 135003300.916 7     -2629.557 7        44.056               
G21  20776782.207 8 109182725.754 8      1870.424 8        53.555               
G16  22948983.158 8 120597734.893 8     -2447.820 8        52.280               
G10  25146937.302 7 132148047.974 7      1221.511 7        46.951               
G08  20309637.727 9 106727884.683 9      -413.582 9        56.503               
> 2022 06 08 00 07 46.0000000  0  7                                             
G01  23096363.312 8 121372209.378 8      4028.327 8        51.253               
G09  25051905.094 7 131648655.590 7     -2555.378 7        45.247               
G04  25690774.941 7 135005932.580 7     -2648.210 7        44.742               
G21  20776426.944 9 109180847.669 9      1879.030 9        54.620               
G16  22949446.323 9 120600173.901 9     -2433.693 9        55.073               
G10  25146703.298 8 132146820.788 8      1236.726 8        48.294               
G08  20309724.106 9 106728285.870 9      -385.324 9        58.211               
> 2022 06 08 00 07 47.0000000  0  7                                             
G01  23095602.485 8 121368211.430 8      3972.272 8        50.990               
G09  25052394.205 7 131651238.112 7     -2608.063 7        45.119               
G04  25691285.423 7 135008617.811 7     -2716.160 7        45.134               
G21  20776072.681 8 109178975.071 8      1867.123 8        53.881               
G16  22949906.379 8 120602592.913 8     -2407.285 8        53.136               
G10  25146462.701 8 132145565.328 8      1273.467 8        48.567               
G08  20309783.708 9 106728643.448 9      -333.365 9        57.995               
> 2022 06 08 00 07 48.0000000  0  7                                             
G01  23094850.735 8 121364255.197 8      3942.955 8        49.936               
G09  25052898.102 7 131653872.213 7     -2660.771 7        45.173               
G04  25691809.861 7 135011367.996 7     -2778.435 7        46.119               
G21  20775711.495 8 109177101.949 8      1880.481 8        53.884               
G16  22950359.376 8 120604971.589 8     -2350.631 8        52.063               
G10  25146217.270 7 132144260.892 7      1335.901 7        47.684               
G08  20309847.080 9 106728951.949 9      -285.500 9        56.350               
> 2022 06 08 00 07 49.0000000  0  7                                             
G01  23094101.514 8 121360319.006 8      3930.036 8        50.351               
G09  25053406.118 7 131656540.526 7     -2671.831 7        46.866               
G04  25692339.695 7 135014156.878 7     -2797.427 7        45.132               
G21  20775357.617 9 109175220.265 9      1880.148 9        55.188               
G16  22950805.235 8 120607315.649 8     -2342.348 8        52.673               
G10  25145960.277 7 132142919.778 7      1342.170 7        46.642               
G08  20309898.570 9 106729226.650 9      -265.447 9        58.673               
> 2022 06 08 00 07 50.0000000  0  7                                             
G01  23093355.589 8 121356403.286 8      3899.941 8        49.603               
G09  25053910.757 7 131659205.058 7     -2654.267 7        47.751               
G04  25692873.496 7 135016958.838 7     -2804.887 7        44.459               
G21  20775001.585 9 109173357.301 9      1842.434 9        55.981               
G16  22951256.205 8 120609682.435 8     -2395.001 8        53.243               
G10  25145707.440 7 132141594.258 7      1306.569 7        45.866               
G08  20309941.768 9 106729493.538 9      -267.417 9        58.507               
> 2022 06 08 00 07 51.0000000  0  7                                             
G01  23092617.974 8 121352528.155 8      3847.951 8        49.798               
G09  25054420.382 7 131661866.332 7     -2671.570 7        47.862               
G04  25693411.381 7 135019787.818 7     -2859.032 7        44.450               
G21  20774651.737 9 109171531.315 9      1810.287 9        54.518               
G16  22951714.313 8 120612089.993 8     -2417.049 8        53.976               
G10  25145462.277 7 132140294.273 7      1301.576 7        47.272               
G08  20309998.672 9 106729748.564 9      -236.975 9        57.871               
> 2022 06 08 00 07 52.0000000  0  7                                             
G01  23091888.569 8 121348697.858 8      3823.608 8        50.694               
G09  25054927.299 8 131664544.512 8     -2678.839 8        48.566               
G04  25693958.343 7 135022660.486 7     -2876.866 7        45.569               
G21  20774313.833 9 109169731.905 9      1791.594 9        55.568               
G16  22952175.646 9 120614512.115 9     -2427.549 9        54.232               
G10  25145212.602 8 132138994.451 8      1300.028 8        48.340               
G08  20310041.245 9 106729976.956 9      -231.106 9        58.425               
> 2022 06 08 00 07 53.0000000  0  7                                             
G01  23091161.711 8 121344876.189 8      3819.426 8        50.935               
G09  25055438.943 8 131667224.982 8     -2682.513 8        48.420               
G04  25694506.037 7 135025537.672 7     -2876.337 7        47.142               
G21  20773973.384 9 109167943.118 9      1785.787 9        56.338               
G16  22952637.793 9 120616941.444 9     -2429.214 9        54.976               
G10  25144965.714 7 132137697.276 7      1301.883 7        46.757               
G08  20310082.237 9 106730210.665 9      -235.340 9        59.009               
> 2022 06 08 00 07 54.0000000  0  7                                             
G01  23090434.218 8 121341057.715 8      3814.805 8        49.229               
G09  25055950.042 8 131669907.095 8     -2680.641 8        49.823               
G04  25695052.266 7 135028415.162 7     -2876.719 7        47.347               
G21  20773630.147 9 109166160.526 9      1778.476 9        56.430               
G16  22953101.753 8 120619373.961 8     -2433.948 8        51.784               
G10  25144720.721 7 132136400.800 7      1295.759 7        47.847               
G08  20310130.563 9 106730451.464 9      -244.456 9        58.574               
> 2022 06 08 00 07 55.0000000  0  7                                             
G01  23089710.514 8 121337242.210 8      3815.889 8        50.840               
G09  25056458.389 7 131672590.725 7     -2679.545 7        47.280               
G04  25695600.729 7 135031292.915 7     -2877.539 7        45.112               
G21  20773292.628 9 109164383.701 9      1772.707 9        56.736               
G16  22953565.553 8 120621809.435 8     -2437.816 8        52.998               
G10  25144472.315 7 132135104.989 7      1295.857 7        46.759               
G08  20310183.366 9 106730698.843 9      -252.847 9        57.023               
> 2022 06 08 00 07 56.0000000  0  7                                             
G01  23088985.496 8 121333433.837 8      3803.454 8        49.668               
G09  25056972.043 7 131675276.748 7     -2684.592 7        45.499               
G04  25696148.549 7 135034170.796 7     -2875.375 7        44.448               
G21  20772960.675 9 109162621.255 9      1756.946 9        56.264               
G16  22954031.121 8 120624253.841 8     -2448.711 8        53.055               
G10  25144227.259 7 132133812.077 7      1290.862 7        46.915               
G08  20310226.458 9 106730962.760 9      -270.603 9        58.757               
> 2022 06 08 00 07 57.0000000  0  7                                             
G01  23088260.148 8 121329627.736 8      3809.045 8        48.861               
G09  25057480.300 7 131677964.695 7     -2692.493 7        46.367               
G04  25696695.698 7 135037049.291 7     -2881.191 7        44.929               
G21  20772626.185 9 109160862.799 9      1764.503 9        54.874               
G16  22954496.377 8 120626699.406 8     -2439.719 8        51.037               
G10  25143982.498 7 132132518.716 7      1294.123 7        45.538               
G08  20310278.421 9 106731231.333 9      -261.076 9        58.283               
> 2022 06 08 00 07 58.0000000  0  7                                             
G01  23087532.450 8 121325805.179 8      3844.660 8        50.348               
G09  25057994.026 8 131680652.462 8     -2676.108 8        48.988               
G04  25697243.268 7 135039922.003 7     -2851.658 7        45.013               
G21  20772282.876 9 109159080.929 9      1799.041 9        55.518               
G16  22954957.237 8 120629124.466 8     -2416.185 8        53.620               
G10  25143731.170 7 132131215.261 7      1302.630 7        45.374               
G08  20310332.975 9 106731485.002 9      -260.148 9        57.954               
> 2022 06 08 00 07 59.0000000  0  7                                             
G01  23086795.156 8 121321929.935 8      3897.192 8        49.175               
G09  25058501.953 7 131683319.046 7     -2662.667 7        47.795               
G04  25697779.338 7 135042744.933 7     -2803.810 7        46.261               
G21  20771938.290 9 109157264.847 9      1830.911 9        54.641               
G16  22955414.862 8 120631531.441 8     -2395.786 8        52.721               
G10  25143486.517 7 132129913.065 7      1306.761 7        45.576               
G08  20310378.058 9 106731761.521 9      -289.552 9        58.290               
> 2022 06 08 00 08 00.0000000  0  7                                             
G01  23086050.965 8 121318019.114 8      3916.198 8        51.680               
G09  25059007.521 8 131685992.835 8     -2691.205 8        48.181               
G04  25698312.639 7 135045543.222 7     -2801.742 7        47.547               
G21  20771591.032 9 109155418.973 9      1857.809 9        57.223               
G16  22955865.269 8 120633899.259 8     -2337.631 8        52.568               
G10  25143233.876 7 132128584.257 7      1359.464 7        47.792               
G08  20310437.142 9 106732056.561 9      -297.086 9        60.450               
> 2022 06 08 00 08 01.0000000  0  7                                             
G01  23085305.836 8 121314103.887 8      3908.972 8        51.954               
G09  25059528.403 7 131688710.851 7     -2732.683 7        47.505               
G04  25698847.558 7 135048354.648 7     -2813.004 7        47.908               
G21  20771231.972 9 109153558.772 9      1849.194 9        57.197               
G16  22956306.035 9 120636209.736 9     -2304.202 9        54.943               
G10  25142967.207 8 132127197.543 8      1397.825 8        48.098               
G08  20310495.351 9 106732366.014 9      -330.091 9        60.984               
> 2022 06 08 00 08 02.0000000  0  7                                             
G01  23084564.191 8 121310207.073 8      3883.367 8        50.012               
G09  25060045.827 8 131691448.529 8     -2744.197 8        48.416               
G04  25699383.852 7 135051174.794 7     -2827.206 7        46.522               
G21  20770885.081 9 109151727.324 9      1810.072 9        57.998               
G16  22956746.453 9 120638523.848 9     -2324.788 9        54.358               
G10  25142701.504 7 132125799.651 7      1394.762 7        47.035               
G08  20310554.015 9 106732712.272 9      -363.629 9        59.325               
> 2022 06 08 00 08 03.0000000  0  7                                             
G01  23083826.325 8 121306331.875 8      3874.275 8        48.638               
G09  25060572.070 7 131694193.650 7     -2738.957 7        46.153               
G04  25699922.629 7 135054003.925 7     -2825.973 7        46.746               
G21  20770545.668 9 109149926.519 9      1796.457 9        56.354               
G16  22957190.847 9 120640856.783 9     -2344.569 9        54.158               
G10  25142438.186 8 132124406.801 8      1383.668 8        48.337               
G08  20310637.079 9 106733082.584 9      -370.586 9        60.610               
> 2022 06 08 00 08 04.0000000  0  7                                             
G01  23083088.254 8 121302449.491 8      3891.474 8        48.893               
G09  25061085.179 7 131696900.507 7     -2680.494 7        46.801               
G04  25700456.949 7 135056816.638 7     -2803.950 7        46.263               
G21  20770199.241 9 109148124.167 9      1810.335 9        55.784               
G16  22957641.352 8 120643226.247 8     -2389.414 8        51.530               
G10  25142181.238 8 132123057.825 8      1319.135 8        49.391               
G08  20310691.678 9 106733433.549 9      -328.224 9        57.632               
> 2022 06 08 00 08 05.0000000  0  7                                             
G01  23082348.664 8 121298562.885 8      3877.595 8        50.662               
G09  25061592.704 7 131699565.322 7     -2657.295 7        45.862               
G04  25700991.894 7 135059622.842 7     -2822.765 7        46.567               
G21  20769852.501 9 109146309.931 9      1815.724 9        54.790               
G16  22958098.700 8 120645630.898 8     -2412.986 8        51.018               
G10  25141931.394 8 132121755.947 8      1294.342 8        50.016               
G08  20310757.087 9 106733733.919 9      -271.130 9        58.403               
> 2022 06 08 00 08 06.0000000  0  7                                             
G01  23081617.017 8 121294707.771 8      3836.541 8        49.056               
G09  25062099.657 7 131702233.733 7     -2678.580 7        45.544               
G04  25701532.834 7 135062469.629 7     -2867.261 7        46.335               
G21  20769511.775 9 109144496.872 9      1809.753 9        54.204               
G16  22958557.568 8 120648043.764 8     -2414.736 8        49.404               
G10  25141688.500 8 132120460.416 8      1298.843 8        48.965               
G08  20310800.884 9 106733971.720 9      -212.155 9        56.239               
> 2022 06 08 00 08 07.0000000  0  7                                             
G01  23080885.066 8 121290877.638 8      3824.330 8        50.461               
G09  25062608.799 7 131704911.376 7     -2679.035 7        46.680               
G04  25702080.046 7 135065343.113 7     -2873.639 7        47.079               
G21  20769168.055 9 109142695.052 9      1793.944 9        57.132               
G16  22959017.713 8 120650462.857 8     -2423.857 8        51.301               
G10  25141441.166 8 132119164.547 8      1295.460 8        49.287               
G08  20310837.033 9 106734186.761 9      -220.993 9        56.930               
> 2022 06 08 00 08 08.0000000  0  7                                             
G01  23080159.137 8 121287059.633 8      3801.681 8        50.395               
G09  25063122.837 7 131707593.147 7     -2690.475 7        45.993               
G04  25702628.116 7 135068217.429 7     -2874.969 7        47.950               
G21  20768826.158 9 109140916.738 9      1745.614 9        56.482               
G16  22959479.618 8 120652896.493 8     -2451.711 8        51.574               
G10  25141193.171 8 132117873.100 8      1285.484 8        48.268               
G08  20310888.380 9 106734428.372 9      -279.113 9        59.073               
> 2022 06 08 00 08 09.0000000  0  7                                             
G01  23079437.720 8 121283268.879 8      3785.456 8        51.927               
G09  25063630.300 7 131710286.180 7     -2697.143 7        45.866               
G04  25703174.443 7 135071094.097 7     -2878.029 7        47.249               
G21  20768497.886 9 109139191.122 9      1716.970 9        57.174               
G16  22959947.831 8 120655360.753 8     -2467.423 8        49.308               
G10  25140951.912 7 132116588.814 7      1283.084 7        47.469               
G08  20310945.909 9 106734731.794 9      -313.277 9        57.409               
> 2022 06 08 00 08 10.0000000  0  7                                             
G01  23078716.884 8 121279483.450 8      3784.270 8        51.683               
G09  25064147.108 7 131712981.344 7     -2694.307 7        46.071               
G04  25703721.351 7 135073971.016 7     -2873.158 7        45.566               
G21  20768174.761 9 109137476.018 9      1713.485 9        56.054               
G16  22960419.047 8 120657831.061 8     -2470.347 8        51.915               
G10  25140705.453 7 132115306.243 7      1281.280 7        46.469               
G08  20310997.399 9 106735047.294 9      -318.136 9        58.871               
> 2022 06 08 00 08 11.0000000  0  7                                             
G01  23077999.442 8 121275702.193 8      3778.426 8        51.018               
G09  25064658.868 7 131715677.914 7     -2697.434 7        46.036               
G04  25704269.493 7 135076847.913 7     -2878.551 7        45.523               
G21  20767851.805 9 109135769.345 9      1702.363 9        57.756               
G16  22960890.833 8 120660306.480 8     -2479.309 8        50.989               
G10  25140460.594 7 132114025.437 7      1275.084 7        43.540               
G08  20311072.672 9 106735372.370 9      -330.306 9        57.922               
> 2022 06 08 00 08 12.0000000  0  7                                             
G01  23077279.482 8 121271921.527 8      3791.395 8        50.607               
G09  25065171.583 7 131718375.170 7     -2694.653 7        46.372               
G04  25704817.026 7 135079722.823 7     -2864.328 7        45.444               
G21  20767527.161 9 109134066.880 9      1711.770 9        55.056               
G16  22961362.772 8 120662783.819 8     -2471.988 8        51.139               
G10  25140219.622 7 132112745.156 7      1280.599 7        43.253               
G08  20311128.370 9 106735705.160 9      -334.006 9        59.030               
> 2022 06 08 00 08 13.0000000  0  7                                             
G01  23076551.444 8 121268093.117 8      3860.591 8        48.027               
G09  25065682.914 7 131721053.060 7     -2667.235 7        46.184               
G04  25705355.759 7 135082558.197 7     -2806.862 7        46.031               
G21  20767191.446 9 109132324.915 9      1770.170 9        54.236               
G16  22961830.404 8 120665239.407 8     -2438.270 8        51.709               
G10  25139973.288 7 132111464.313 7      1279.224 7        45.176               
G08  20311196.218 9 106736040.507 9      -338.564 9        58.052               
> 2022 06 08 00 08 14.0000000  0  7                                             
G01  23075812.569 8 121264212.824 8      3890.194 8        49.781               
G09  25066186.294 7 131723721.981 7     -2683.763 7        45.990               
G04  25705888.203 7 135085353.942 7     -2790.114 7        45.778               
G21  20766851.479 8 109130538.856 8      1797.027 8        53.877               
G16  22962290.728 8 120667657.815 8     -2397.058 8        51.019               
G10  25139727.133 7 132110167.925 7      1317.554 7        46.032               
G08  20311259.198 9 106736385.953 9      -354.801 9        56.091               
> 2022 06 08 00 08 15.0000000  0  7                                             
G01  23075069.646 8 121260309.917 8      3913.546 8        49.264               
G09  25066699.045 7 131726399.097 7     -2672.690 7        47.848               
G04  25706417.179 7 135088135.680 7     -2772.129 7        47.498               
G21  20766512.665 8 109128732.398 8      1816.141 8        53.587               
G16  22962742.904 8 120670046.345 8     -2385.330 8        50.776               
G10  25139478.629 7 132108849.986 7      1315.890 7        47.715               
G08  20311327.297 9 106736742.814 9      -355.096 9        56.397               
> 2022 06 08 00 08 16.0000000  0  7                                             
G01  23074320.604 8 121256373.518 8      3963.735 8        50.943               
G09  25067202.764 8 131729046.007 8     -2614.497 8        48.208               
G04  25706942.207 8 135090885.560 8     -2720.666 8        48.753               
G21  20766161.262 8 109126899.170 8      1855.068 8        53.947               
G16  22963199.824 8 120672437.629 8     -2402.234 8        52.679               
G10  25139228.927 8 132107552.050 8      1274.279 8        50.017               
G08  20311394.565 9 106737089.849 9      -336.522 9        56.351               
> 2022 06 08 00 08 17.0000000  0  7                                             
G01  23073560.152 8 121252374.028 8      4039.168 8        50.589               
G09  25067692.965 8 131731632.145 8     -2557.335 8        49.438               
G04  25707452.484 7 135093573.530 7     -2652.563 7        46.915               
G21  20765801.156 9 109125017.276 9      1913.963 9        56.854               
G16  22963656.735 8 120674839.518 8     -2397.168 8        52.737               
G10  25138991.832 7 132106296.683 7      1241.887 7        47.731               
G08  20311450.119 9 106737419.393 9      -324.021 9        59.674               
> 2022 06 08 00 08 18.0000000  0  7                                             
G01  23072785.610 8 121248305.867 8      4079.134 8        50.144               
G09  25068177.564 7 131734171.041 7     -2529.641 7        47.749               
G04  25707951.959 7 135096201.047 7     -2617.439 7        47.203               
G21  20765436.020 9 109123077.983 9      1952.404 9        55.483               
G16  22964110.420 8 120677230.181 8     -2386.536 8        53.174               
G10  25138756.595 7 132105063.741 7      1230.980 7        47.936               
G08  20311522.650 9 106737735.847 9      -310.070 9        59.090               
> 2022 06 08 00 08 19.0000000  0  7                                             
G01  23072009.925 8 121244227.351 8      4072.183 8        48.622               
G09  25068661.859 8 131736703.344 8     -2534.095 8        49.838               
G04  25708451.702 7 135098820.116 7     -2622.245 7        47.635               
G21  20765060.646 9 109121129.136 9      1940.939 9        55.318               
G16  22964564.821 8 120679617.808 8     -2390.036 8        53.068               
G10  25138521.966 7 132103833.552 7      1229.388 7        47.669               
G08  20311574.461 9 106738048.424 9      -323.017 9        58.310               
> 2022 06 08 00 08 20.0000000  0  7                                             
G01  23071234.105 8 121240157.569 8      4069.120 8        48.523               
G09  25069143.599 8 131739241.681 8     -2539.370 8        49.224               
G04  25708949.551 8 135101441.361 8     -2619.739 8        48.444               
G21  20764697.815 9 109119195.711 9      1929.077 9        55.101               
G16  22965020.382 8 120682011.474 8     -2395.710 8        52.559               
G10  25138289.008 7 132102602.530 7      1229.330 7        47.041               
G08  20311641.023 9 106738379.339 9      -335.256 9        58.202               
> 2022 06 08 00 08 21.0000000  0  7                                             
G01  23070461.279 8 121236095.442 8      4049.420 8        50.805               
G09  25069624.857 8 131741782.981 8     -2543.766 8        48.103               
G04  25709448.007 8 135104063.020 8     -2623.154 8        49.046               
G21  20764327.310 9 109117277.281 9      1893.772 9        55.741               
G16  22965477.347 9 120684413.745 9     -2416.382 9        54.485               
G10  25138053.128 8 132101373.928 8      1224.823 8        48.576               
G08  20311705.217 9 106738727.524 9      -375.512 9        59.615               
> 2022 06 08 00 08 22.0000000  0  7                                             
G01  23069692.670 8 121232055.761 8      4036.888 8        50.468               
G09  25070109.456 7 131744331.226 7     -2550.939 7        47.644               
G04  25709947.652 8 135106685.115 8     -2622.654 8        49.109               
G21  20763975.121 9 109115403.579 9      1864.386 9        54.472               
G16  22965939.913 9 120686844.142 9     -2435.679 9        54.144               
G10  25137824.225 8 132100154.287 8      1218.090 8        48.489               
G08  20311781.313 9 106739127.533 9      -410.647 9        56.763               
